index,table,name,community,community_code,land,table_abbr,voivodeship,potential,kalik_id,newname,lon,lat,1717,1718,1719,1720,1721,1722,1723,1724,1725,1726,1727,1728,1729,1731,1732,1733,1734,1735,1736,1737,1739,1741,1745,1749,1738,1746,1747,1748,1751,1752,1753,1755,1758,1760,1761,1762,1764,1742,1757,1743,1744,1754,1756,1763,1765
maz_cchnwc,100,ciechanowiec,ciechanowiec,cchnwc,Autonomous,ext,maz,0,1,"",22.5,52.6833333333333,1166,699,600,600,600,600,600,600,600,600,600,294,321,600,226,242,242,247,300,241,186,241,600,155,,,,,,,,,,,,,,,,,,,,,
snd_dbc,100,debica,debica,dbc,Autonomous,ext,snd,500,2,"",21.4276119355814,50.0462665069964,,,,,,,,,,,,,,,,500,500,500,500,500,500,,,500,500,500,500,500,500,500,500,500,500,500,500,500,500,,,,,,,,
maz_jblnk,100,jablonka,ciechanowiec,cchnwc,Autonomous,ext,maz,100,3,"",22.3600769124574,52.9558069811952,,,,,,,,,,,,,,,100,100,100,100,100,100,,,,,,,,,,,,,,,,,,,,,,,,,
maz_grdzsk,100,grodzisk,ciechanowiec,cchnwc,Autonomous,ext,maz,80,4,"",20.6166666666667,52.1,,,,,,,,,,,,,,,,,,,,,80,,,,,,,,,,,,,,,,,,,,,,,,
lbl_jzfw,100,jozefow,jezefow,jzfw,Autonomous,ext,lbl,400,5,"",23.05,50.4833333333333,,,,,,,,400,248,,,,400,400,400,400,400,400,400,400,400,,,400,400,,,400,,,,,,,,,,400,400,,,,,,
krk_kzmrz,100,kazimierz,krakow,krkw,Autonomous,ext,krk,2375,6,"",19.9466672325367,50.0516214964871,3174,3172,2462,2904,4200,2285,3992,2441,5262,4150,4330,6390,6713,7135,4758,1803,1803,6223,3668,3819,3819,4760,4493,4488,3929,4493,4493,5693,5430,5174,4456,5164,3904,3732,3675,1033,,4400,,4413,4161,4973,4562,2375,
lbl_lbln,100,lublin,lublin,lbln,Autonomous,ext,lbl,30,7,"",22.5717026123729,51.2527987607334,,,,,,,228,221,2322,1708,2468,2614,3221,1154,1443,1773,1066,970,400,,,505,300,1518,,260,160,1200,1430,424,2332,236,1107,1935,1540,2051,30,246,,,620,960,1814,423,
pdl_mdzyrzcz_pdlsk,100,miedzyrzecz_podlaski,miedzyrzecz_podlaski,mdzyrzczpdlsk,Autonomous,ext,pdl,600,8,"",22.7833333333333,51.9833333333333,,,,,1200,1390,1200,1200,,,,,,,,1218,1218,,1200,,,,1200,,,,,1663,,,400,200,,800,600,600,600,,,,1200,600,,,
pzn_pznn,100,poznan,poznan,pznn,Autonomous,ext,pzn,3417,9,"",16.9356907686123,52.4098079881286,3322,3322,,,2067,2068,2536,,,,1760,,,,,,,,,,2358,,3100,3064,,,4292,3110,4616,,3118,3528,3485,3521,3417,,,,,3340,,2720,3623,,
maz_wysk_mzwck,100,wysokie_mazowieckie,ciechanowiec,cchnwc,Autonomous,ext,maz,280,10,"",22.5166666666667,52.9166666666667,,,,,,,,,,,,,100,,,110,160,170,,170,170,200,,280,,,,,,,,,,,,,,,,,,,,,
rus_przmysl,100,przemysl,przemysl,przmysl,Autonomous,ext,rus,2000,11,"",22.7720602434326,49.7833567820999,2888,2886,1801,2469,2139,2112,1368,1871,,,,,,,,1683,1686,1560,1560,1628,1622,1279,2068,1743,1671,2068,1968,2008,2883,1153,1172,2874,2145,1542,1225,1677,,818,1408,1638,1728,1200,1563,2000,
pdl_smtycz,100,siemiatycze,siemiatycze,smtycz,Autonomous,ext,pdl,0,12,"",22.862653952951,52.4271122417998,,,,,,,,,,,,,,,,,,,800,,,,,,,,,,,,,,,,,,,,,,,,,,
maz_kscln_nr,100,koscielna_nur,ciechanowiec,cchnwc,Autonomous,ext,maz,40,13,"",22.36666667,52.95,,,,,,,,,,,,,,,50,,,,,,40,,,,,,,,,,,,,,,,,,,,,,,,
wol_mdzyrzcz_krck,100,miedzyrzecz_korecki,miedzyrzecz_korecki,mdzyrzczkrck,Autonomous,ext,wol,0,14,"",26.86666667,50.65,,,,,,,,,,,,,,,,,,,,,,,,,,,,,,,,,,,,,,,2400,,,,,,
lbl_glsk,100,glusk,lublin,lbln,Autonomous,ext,lbl,700,15,"",22.6028678366868,51.1868019407681,,,,,,,,,,,,,,,,,,,,,,,,,800,,,,,,,,,,,,,,,,,,,,
pod_bchtyn,1000,bachtyn,podolia,pdl,Podolia,podolia,pod,180,16,"",27.4833333333333,48.8166666666667,,,,,,,,,,,,,,,,,50,,50,52,,80,84,130,75,154,100,125,138,145,135,140,144,172,179,179,180,,142,154,154,136,,180,
pod_bln,1000,balin,podolia,pdl,Podolia,podolia,pod,230,17,"",26.6605581479981,48.8780831610185,,,,,300,150,,,,,,,272,,,,275,,150,140,,140,170,132,240,170,120,121,200,217,318,300,200,,200,200,230,,224,142,208,280,,195,
pod_br,1000,bar,podolia,pdl,Podolia,podolia,pod,1710,18,"",27.687441853947,49.0795898090702,,,,,,650,731,780,1163,1050,1340,780,,,1136,,,,,,,1404,1300,1492,531,1194,1194,1550,812,,1400,1460,1268,1560,1580,1550,1710,,,,580,1412,,1500,
pod_blcz,1000,bilcze,podolia,pdl,Podolia,podolia,pod,100,19,"",25.8833333333333,48.7833333333333,,,,,170,,124,168,140,,100,100,140,143,,150,178,,150,104,,80,,,120,,,,,104,88,90,90,100,94,98,100,,90,80,,86,,90,
pod_brk,1000,borek,podolia,pdl,Podolia,podolia,pod,0,20,"",,,,,,,,,,,,,,,40,44,,,,,,,,,,,,,,,,,,,,,,,,,,,,,,,
pod_brszczw,1000,borszczow,podolia,pdl,Podolia,podolia,pod,590,21,"",26.0446154992621,48.7971335771734,,,,270,130,150,58,,650,510,,,585,484,552,528,580,,450,,,,,,450,530,,,,559,,,480,450,,450,590,,476,,562,,,420,
pod_chmlnk,1000,chmielnik,podolia,pdl,Podolia,podolia,pod,1482,22,"",27.96666667,49.55,,,,220,200,270,414,450,,,240,240,240,240,312,399,400,,450,740,,550,756,,480,970,1040,340,,,,1050,1100,1189,1258,1358,1482,,1100,558,1082,1008,,1300,
pod_czrnstrw,1000,czarnoostrow,podolia,pdl,Podolia,podolia,pod,0,24,"",26.76086653245,49.5060832846021,,,,,,,,237,,,280,280,,,,,,,150,,,,,,,,,,,,,,,,,,,,,,,,,,
brc_cznjwc,1000,czeniejowce,podolia,pdl,Podolia,podolia,brc,150,25,Chemerivtsi,26.3667,49,,,,,,,,,,,,,,,,,,,,,,,,,,,,,,,,,,,,,150,,,,,,,,
pod_czrcz,1000,czercze,podolia,pdl,Podolia,podolia,pod,260,26,"",26.5239614208908,48.8601084646789,,,,,,,,,,,,,,,,,,,,,,155,400,340,135,484,390,332,,270,,,,,,,260,,,400,400,,,,
pod_czrwngrd,1000,czerwonogrod,podolia,pdl,Podolia,podolia,pod,325,27,"",25.5883953711223,48.7970831827642,,,,,,,,,,,,,,,,261,275,,275,234,,230,,,300,,,,280,332,340,335,290,325,,,,,300,,,330,,,
pod_drzn,1000,deraznia,podolia,pdl,Podolia,podolia,pod,560,28,"",27.4095626882433,49.2841503182117,,,,90,,125,,135,,,,160,160,111,130,180,120,,120,234,,366,,540,270,160,,530,,,660,610,538,,504,520,560,,538,530,503,605,,450,
pod_dnjwc,1000,dunajowiec,podolia,pdl,Podolia,podolia,pod,1140,29,"",26.83333333,48.9,,,,,,220,54,,,,,,,594,,312,391,,,574,,,,932,,,,532,,,991,810,870,1000,1005,,1140,,862,,136,775,,1000,
pod_dωwngrd,1000,dωwinogrod,podolia,pdl,Podolia,podolia,pod,176,30,"",24.25,49.73333333,,,,,,167,,,160,,206,180,211,110,110,120,137,,120,104,,80,105,,100,120,,,,88,80,93,129,150,159,170,176,,110,,106,90,,150,
pod_flsztyn,1000,fulsztyn,podolia,pdl,Podolia,podolia,pod,360,32,"",,,,,,,,130,199,,,150,300,300,340,170,340,351,262,,50,,,273,280,300,300,398,400,286,355,363,391,383,360,421,480,250,360,,342,,335,371,,320,
pod_grdk,1000,grodek,podolia,pdl,Podolia,podolia,pod,460,33,"",26.5615283908293,49.1625405022417,,,,,230,257,,,,450,550,550,550,550,,,,,,584,,588,,560,684,642,700,534,700,778,,506,,622,630,660,,,,,,484,,460,
pod_grdk_n_dnstr,1000,grodek_on_dnister,podolia,pdl,Podolia,podolia,pod,84,34,Gorodnitsa  (horodnica),26.0017,49.0017,,,,,,,,,,,,,,,,,,,,,,,,48,,,48,48,48,62,60,82,84,,,,,,82,,,,,,
pod_hstyn,1000,husiatyn,podolia,pdl,Podolia,podolia,pod,1000,35,"",26.1898681442441,49.0705031959831,,,,,856,200,64,,650,650,,550,603,500,,480,537,,150,481,,501,761,,460,,,,,950,,,799,900,900,900,1000,,794,,680,,,900,
pod_jglnc,1000,jagielnica,podolia,pdl,Podolia,podolia,pod,540,36,"",25.7452549737826,48.946831863226,,,,216,300,250,32,,215,,320,284,333,352,233,378,400,,320,335,,350,,,440,,,,340,383,,,378,422,428,450,540,,345,342,355,,,460,
pod_jnw,1000,janow,podolia,pdl,Podolia,podolia,pod,0,37,"",28.35,49.4833333333333,,,,,,,,,,,,,,,,,,,,,,,155,,,,,,,,,,,,,,,,,,,,,,
pod_jrmlnc,1000,jarmolnica,podolia,pdl,Podolia,podolia,pod,216,38,Yarmolyntsi,26.8333,49.2,,,,52,,114,155,168,,,,100,170,,180,,,,150,208,,300,336,,240,,300,,280,176,,,,,,,,,,380,,,,,
pod_jrh,1000,jaruha,podolia,pdl,Podolia,podolia,pod,366,39,"",28.05,48.3333333333333,,,,,,,,117,100,90,80,80,90,111,110,129,137,,125,129,,106,282,250,150,312,230,240,330,227,288,300,320,300,332,302,366,,316,228,228,288,,310,
pod_jryszw,1000,jaryszow,podolia,pdl,Podolia,podolia,pod,720,40,"",27.6314884267825,48.516039231793,,,,,100,70,137,141,166,154,220,220,258,176,208,219,220,,230,260,,400,567,620,330,644,558,586,700,724,676,747,570,634,654,600,720,,560,574,606,722,,700,
pod_jzlwc,1000,jazlowiec,podolia,pdl,Podolia,podolia,pod,448,41,"",25.4333333333333,49,,,,,430,400,,,460,500,680,601,703,497,591,607,665,,426,135,,386,200,,520,188,270,,,704,,,,,,,448,,,,,,,350,
pod_jzrzny,1000,jezierzany,podolia,pdl,Podolia,podolia,pod,0,42,"",25.9537194380546,48.8783504826931,,,,,,,,,,,,,,,,,,,,,,,,,,,,,,200,,,,,,,,,,,,,,,
pod_klsz,1000,kalusz,podolia,pdl,Podolia,podolia,pod,170,44,"",24.3666666666667,49.0333333333333,,,,,,,,,,,,,50,,26,,25,,50,40,,,,,50,,,,,166,134,140,164,188,180,170,,,164,,,135,,,
pod_kmnc_pdlsk,1000,kamieniec_podolski,podolia,pdl,Podolia,podolia,pod,500,45,"",26.5833333333333,48.6833333333333,,,,,,,,,,,,,,,,,,,,,,,,500,,,,,,,,,,,,,,,,,,,,,
pod_ksprwc,1000,kasperowce,podolia,pdl,Podolia,podolia,pod,70,46,"",25.8598102478508,48.662106294711,,,,,,,,,,,,,,,,,,,,,,64,,,,,,,,,60,63,63,,,,,,63,,,60,,,
pod_ktjgrd,1000,kitajgrod,podolia,pdl,Podolia,podolia,pod,320,47,"",26.8023486666688,48.6368074298325,,,,154,220,,185,153,206,,200,170,80,110,130,135,,,,169,,120,130,229,150,,200,210,325,363,302,313,,388,400,350,,,330,230,242,302,,320,
pod_klndzny,1000,kolendziany,podolia,pdl,Podolia,podolia,pod,100,48,"",25.95,48.9666666666667,,,,,,,,,150,,100,,,77,50,50,,,50,,,40,40,90,75,,,84,72,80,81,63,60,78,78,80,100,,60,40,50,81,,70,
pod_kpjgrd,1000,kopajgrod,podolia,pdl,Podolia,podolia,pod,340,49,"",27.7994046227236,48.8567562031438,,,,130,,305,234,237,,,273,250,250,165,150,204,180,,,,,,,,,,,264,280,,335,313,300,260,204,234,340,,293,,,302,,250,
pod_krlwk,1000,krolowka,podolia,pdl,Podolia,podolia,pod,181,50,"",,,,,,196,102,,195,288,270,,366,291,178,,396,380,460,,440,364,,,,100,300,,150,100,100,155,170,166,,,,,181,,,,,180,,,
pod_krzywcz,1000,krzywcza,podolia,pdl,Podolia,podolia,pod,566,51,"",26.1,48.7,,,,324,,100,,,600,,,,,,676,564,,,,520,,,330,370,,340,,,420,466,,,,,,520,566,,450,,335,,,,
pod_kdrync,1000,kudryniec,podolia,pdl,Podolia,podolia,pod,210,52,Kudryntsi,26.7667,49.3833,,,,196,390,,224,,250,,,,40,176,208,180,220,,250,,,220,300,,,272,352,284,,259,,,259,304,288,250,210,,250,288,256,,,210,
pod_kpn,1000,kupin,podolia,pdl,Podolia,podolia,pod,254,53,"",26.5757065488601,49.1005339327516,,,,,,,159,150,,,246,246,150,,310,249,300,,80,302,,310,450,480,,520,284,484,460,478,,254,,,,,,,,,,,,,
pod_kzmn,1000,kuzmin,podolia,pdl,Podolia,podolia,pod,280,54,"",,,,,,,,,,,,,100,100,,,,,,,,,,,,,,,230,,,,224,235,,,,,280,,236,,,228,,,
pod_lnckrn,1000,lanckorona,podolia,pdl,Podolia,podolia,pod,560,55,"",,,,,,,,,,,,,,,,,,,,,,,,,,,,,400,200,,288,381,375,,,,460,560,,,,,381,,450,
pod_ltyczw,1000,latyczew,podolia,pdl,Podolia,podolia,pod,400,56,"",27.6261175434232,49.3843308586413,,,,200,,310,,,100,,,,,,,,,,,,,,,,,,,,500,,,548,560,,,,,,,,,529,,400,
pod_ltnwc,1000,letniowce,podolia,pdl,Podolia,podolia,pod,134,57,"",27.2781673285881,48.8300364526266,,,,,,125,309,,150,,300,225,,210,,360,290,,475,,,,,,,,,,,,,,70,94,,98,134,,73,,,82,,80,
pod_ltyn,1000,lityn,podolia,pdl,Podolia,podolia,pod,0,58,"",28.0833333333333,49.3333333333333,,,,,,138,174,192,,,,,360,280,390,,,,,,,,,,,,,,,,,,,,,,,,,,,,,,
pod_mchlpl,1000,michalpol,podolia,pdl,Podolia,podolia,pod,290,59,"",27.1394843317541,49.2436773806912,,,,,,,,,160,,,60,250,220,,99,275,,250,,,200,235,230,240,215,280,220,330,280,297,310,360,390,290,308,290,,340,288,355,299,,290,
pod_mdzybrz,1000,miedzyborz,podolia,pdl,Podolia,podolia,pod,2500,60,"",27.3895682765039,49.4387889992553,,,,,,565,978,918,1250,1170,1200,800,936,320,,1112,987,,130,,,332,1400,420,,1128,1200,1814,,,2072,,,,,908,2500,,,,250,2000,,2200,
pod_mktync,1000,mikitynce,podolia,pdl,Podolia,podolia,pod,0,61,"",25.0666666666667,48.4,,,,,,,150,165,,150,200,200,,,312,,,,,,,,,,,,,,,,,,,,,,,,,,,,,,
pod_mkljw,1000,mikolajow,podolia,pdl,Podolia,podolia,pod,530,62,"",26.8477921399581,49.5741585825679,,,,100,,,159,186,200,180,240,240,,220,66,273,,,200,,,365,462,,,488,,,,520,,689,,440,530,,,,634,,470,655,,,
pod_mnkwc,1000,minkowce,podolia,pdl,Podolia,podolia,pod,600,63,Mynkivtsi,27.1134944503114,48.8504159234821,,,,,54,,,,,,400,300,351,,,,32,,400,286,,400,430,,330,520,500,462,560,415,459,444,480,546,572,630,600,,444,513,450,429,,530,
pod_mhylw_pdlsk,1000,mohylow_podolski,podolia,pdl,Podolia,podolia,pod,1300,65,Mohyliv-Podilskyy,27.8,48.45,,,,,330,415,508,204,200,,,160,300,200,260,,,,,,,,,,,,,,,,,,,,,,,,,,,,,,
pod_mztw,1000,moztow,podolia,pdl,Podolia,podolia,pod,216,66,"",,,,,,216,,,,,,,,,,,,,,,,,,,,,,,,,,,,,,,,,,,,,,,,,
pod_nwy_knstntynw,1000,nowy_konstantynow,podolia,pdl,Podolia,podolia,pod,0,67,"",27.7333333333333,49.4833333333333,,,,84,184,144,180,188,200,200,300,250,300,264,241,,,,,,,,,,,,,,,,,,,,,,,,,,,,,,
pod_kp,1000,okop,podolia,pdl,Podolia,podolia,pod,158,68,"",26.5333333333333,49.9666666666667,,,,324,400,300,,,90,,,,,,416,498,,,500,498,,500,,,500,,500,500,150,124,150,158,,,,,,,,500,500,158,,,
pod_lchwc,1000,olchowiec,podolia,pdl,Podolia,podolia,pod,60,69,"",27.3633924845133,48.6881049715231,,,,,,,,,,,,,,,,,,,,,,,100,,,120,120,,,104,70,73,45,54,58,60,,,43,50,72,71,,60,
pod_rynn,1000,orynin,podolia,pdl,Podolia,podolia,pod,439,70,"",26.411212872189,48.7500077187815,,,,,,,,,,,,,,,,,,,,,,,,,,,,,,,210,300,300,332,338,328,439,,320,,,,,,
pod_zrzync,1000,ozarzynce,podolia,pdl,Podolia,podolia,pod,890,71,"",27.788517159541,48.5388364606765,,,,,,,,,,,,,,,,,150,,123,172,,400,674,750,250,796,696,810,720,873,711,570,780,704,735,750,890,,766,608,642,550,,750,
pod_pkw,1000,pikow,podolia,pdl,Podolia,podolia,pod,352,72,"",28.2833333333333,49.5666666666667,,,,114,100,200,209,,,,,,,,,,,,100,,,,200,352,200,352,352,,,,,,,,,,,,,,,,,,
pod_plw,1000,pilawa,podolia,pdl,Podolia,podolia,pod,280,73,"",27.45,49.6,,,,112,,205,,135,,,,140,164,176,208,150,,,180,50,,130,,,70,,270,300,,322,341,352,325,350,300,260,280,,320,304,322,341,,250,
pod_pbznny,1000,pobuzniany,podolia,pdl,Podolia,podolia,pod,391,74,Potochyshche,25.5853,48.7433,,,,,,,,,,,,,,,,,,,,,,,,,,,,,,,,,,,,,391,,,,,,,,
pod_plskrw,1000,ploskirow,podolia,pdl,Podolia,podolia,pod,400,75,"",27,49.41666667,,,,200,,380,,,,50,,,,,,300,,,500,144,,420,,635,420,668,,612,763,833,700,,,,350,400,,,,,640,726,,,
pod_slch,1000,salicha,podolia,pdl,Podolia,podolia,pod,60,76,"",26.8833333333333,49.8666666666667,,,,,,,,,,,,,60,,,,,,,,,,,,,,,,,,,,,,,,,,,,,,,,
pod_stnw,1000,satanow,podolia,pdl,Podolia,podolia,pod,750,78,"",26.2570355829167,49.256210001541,,,,,530,450,1088,753,1100,856,940,940,302,640,,,900,,,,,,1300,,,,,750,,,,,,,,,,,,,200,,,,
pod_swnc,1000,sawince,podolia,pdl,Podolia,podolia,pod,183,79,"",26.7997855179463,49.0814533904746,,,,,,,,,,,,,,44,52,,55,,70,90,,130,270,175,90,230,,160,175,186,,179,167,,,,,,160,228,270,,,,
pod_srbr,1000,serebria,podolia,pdl,Podolia,podolia,pod,107,80,"",29.9333333333333,48.5666666666667,,,,100,,80,,120,,,,160,197,111,65,72,72,,70,100,,120,160,200,,268,150,176,100,103,107,,,,,,,,,230,200,,,,
pod_sdrw,1000,sidorow,podolia,pdl,Podolia,podolia,pod,160,81,"",26.1549004442975,49.0109341390287,,,,,184,165,154,,120,140,246,246,246,176,,150,190,,200,182,,190,212,220,230,362,274,,220,243,200,186,,128,124,130,160,,130,230,232,180,,120,
pod_skl,1000,skala,podolia,pdl,Podolia,podolia,pod,360,82,"",26.1952719535816,48.8449278881399,,,,216,220,300,359,,,420,,,500,,585,585,618,,450,572,,515,390,330,611,,,,335,350,308,317,340,400,404,364,360,,325,400,410,344,,324,
pod_smtrycz,1000,smotrycz,podolia,pdl,Podolia,podolia,pod,340,83,"",26.5419864756668,48.9487410006871,,,,,,,314,372,420,430,,210,,400,150,201,225,,250,300,,260,500,450,280,,1104,450,,,300,300,330,350,350,300,340,,300,418,470,300,,300,
pod_sndkw,1000,snidkow,podolia,pdl,Podolia,podolia,pod,0,84,"",27.6333333333333,48.8166666666667,,,,,60,70,84,102,50,95,,,,300,312,375,,,200,576,,330,504,550,300,662,512,555,540,414,451,450,480,542,552,500,,,460,584,604,415,,450,
pod_sntwk,1000,snitowka,podolia,pdl,Podolia,podolia,pod,100,85,"",27.5034472424196,49.3334331663167,,,,,,,,,,,,,,,,,,,,,,,,,,,,,,70,,,80,80,84,84,100,,72,,,,,120,
pod_snydkw,1000,snydkow,podolia,pdl,Podolia,podolia,pod,474,86,"",27.6333333333333,48.8166666666667,,,,,,,,,,,,,,,,,,,,,,,,,,,,,,,,,,,,,474,,,,,,,,
pod_sklc,1000,sokolec,podolia,pdl,Podolia,podolia,pod,430,87,"",27.0774297285751,48.7371966417511,,,,,,,,,,,,,,,,,,,,364,,,260,570,370,294,300,254,320,,284,300,300,372,380,380,430,,300,250,290,287,,350,
pod_slbkwc,1000,solobkowiec,podolia,pdl,Podolia,podolia,pod,118,88,"",26.9166666666667,49.0833333333333,,,,,180,,,135,166,,,,,,,,,,,390,,450,,260,284,,,630,,634,,201,680,,824,828,,,,570,,,,118,
pod_stdnc,1000,studenica,podolia,pdl,Podolia,podolia,pod,360,90,"",28.4166666666667,49.1333333333333,,,,134,70,110,155,,80,100,160,37,184,198,189,210,,,150,169,,80,,210,195,220,182,200,,,280,218,,300,305,270,360,,292,172,150,211,,270,
pod_sdkwc,1000,sudkowce,podolia,pdl,Podolia,podolia,pod,170,91,"",26.9166666666667,49.1833333333333,,,,,,,,,,,,,,,,,,,,,,90,130,80,94,142,142,72,90,104,96,100,90,114,118,120,170,,90,114,125,97,,120,
pod_szrwk,1000,szarawka,podolia,pdl,Podolia,podolia,pod,810,92,"",26.9801216083181,49.2139927623949,,,,,,,258,,,,,300,351,,,,,,,364,,370,760,850,450,880,826,840,880,880,322,,700,804,812,850,810,,700,684,756,,,800,
pod_szrgrd,1000,szarogrod,podolia,pdl,Podolia,podolia,pod,1333,93,"",28.0916649585137,48.7389628625526,,,,,,,,162,56,200,460,460,538,506,500,670,632,,400,468,,800,1186,1370,630,1548,1460,542,1800,,1100,1140,1140,1250,,708,,,1140,,1200,1100,,1333,
pod_sztw,1000,szatawa,podolia,pdl,Podolia,podolia,pod,200,94,"",26.7065941063316,48.7680695783116,,,,,,,,,,,,,,,,,,,,,,,,,,,,,150,230,166,,180,224,228,200,200,,171,,,,,200,
pod_trnwdy,1000,tarnowody,podolia,pdl,Podolia,podolia,pod,394,95,Tarnoruda,26.2333,49.4167,,,,,,,,,,,,,,,,,,,,,,,,,,,,,,184,506,,,394,,,,,,,460,,,,
pod_ttrzysk,1000,tatarzyska,podolia,pdl,Podolia,podolia,pod,200,96,"",26.9,48.9833333333333,,,,,,,,,,,,,,,,,,,,,,,,,,200,,,230,200,,,,,,,,,,,,,,,
pod_ttls,1000,totals,podolia,pdl,Podolia,podolia,pod,37776,,"",,,,,,6072,8639,8524,9229,8562,12700,12000,12000,12000,12000,13000,13036,13036,13000,,11000,13200,,15000,20000,20000,15000,20000,20000,20000,20000,23000,22000,21500,21500,27500,24931,25250,28000,,21500,15000,21436,21500,,30250,
pod_tlst,1000,tluste,podolia,pdl,Podolia,podolia,pod,252,97,"",25.7368977000694,48.8518484148717,,,,,,,,,,,,,,,,249,350,,100,176,,230,,,330,,,,240,280,266,275,260,242,242,242,252,,260,304,,266,,220,
pod_lnwc,1000,ulanowiec,podolia,pdl,Podolia,podolia,pod,120,98,Ulashkivtsi,25.8256,48.9003,,,,,,,,,,,,,120,,120,,,,,,,,,,,,,,,,,,,,,,,,,,,,,,
pod_trylcz,1000,turylicz,podolia,pdl,Podolia,podolia,pod,50,99,"",48.9333333333333,53.3666666666667,,,,,,,,,,,,,,,,,,,,50,,,,,,,,,,,,,,,,,,,,,,,,,
pod_szyc,1000,uszyca,podolia,pdl,Podolia,podolia,pod,260,100,"",27.0833333333333,48.6,,,,,164,85,,84,,,70,70,80,123,40,90,100,,100,129,,,130,180,150,104,210,160,235,215,,,240,288,280,260,,,231,132,142,,,,
pod_lnw,1000,ulanow,podolia,pdl,Podolia,podolia,pod,594,101,"",28.13333333,49.7,,,,216,330,,,210,,,,160,165,132,315,,,,,208,,250,252,245,250,280,282,236,275,280,384,370,370,410,412,412,594,,370,380,300,347,,420,
pod_wrzbwc,1000,wierzbowiec,podolia,pdl,Podolia,podolia,pod,180,102,"",27.4299113447288,48.7168171708956,,,,134,50,75,,75,80,,,,60,77,65,70,80,,32,78,,100,110,160,90,170,134,150,145,155,203,250,281,320,324,160,180,,260,152,162,229,,160,
pod_lszkwc,1000,ulaszkowiec,podolia,pdl,Podolia,podolia,pod,185,103,"",25.83333333,48.9,,,,108,176,55,30,,200,150,340,340,234,236,238,180,280,,,208,,165,,120,270,,,168,,80,96,100,100,132,136,148,185,,90,209,215,96,,150,
pod_wrzbwk,1000,wierzbowka,podolia,pdl,Podolia,podolia,pod,66,104,"",26.2333333333333,48.75,,,,50,60,70,,66,,,,,,,,,,,,,,,,,,,,,,,,,,,,,,,,,,,,,
pod_wnkwc,1000,wonkowce,podolia,pdl,Podolia,podolia,pod,582,105,"",27.2237433990833,49.0300187921068,,,,,,,,,,,,,,,,,,,,,,,240,340,,322,394,320,410,,,441,600,530,580,580,582,,,304,206,120,,520,
pod_zmchw,1000,zamiechow,podolia,pdl,Podolia,podolia,pod,560,107,"",27.3666279663849,48.8540389403032,,,,,,,,,,,,,50,,,,,,,,,,462,350,,,500,274,450,590,580,485,500,524,528,510,560,,495,384,325,469,,480,
pod_zbrzyszcz,1000,zbrzyszcze,podolia,pdl,Podolia,podolia,pod,880,108,Zbryzh,26.1833,48.9333,,,,138,300,,23,,,,,,,,,,490,,,,,510,,,,,,,214,840,,690,700,825,800,800,880,,690,760,760,,,800,
pod_znkw,1000,zinkow,podolia,pdl,Podolia,podolia,pod,540,109,"",27.0737578551854,49.0927358718654,,,,120,278,120,189,207,220,220,246,200,234,352,162,339,50,,200,312,,220,352,296,425,260,250,275,,364,459,480,416,,,445,540,,400,,400,465,,460,
pod_lczync,1000,luczyniec,podolia,pdl,Podolia,podolia,pod,160,110,"",27.8239014146597,48.7131941540745,,,,,,,,,120,80,160,160,100,264,312,249,200,,150,208,,,350,250,,,374,,320,208,200,207,290,310,314,322,160,,237,,320,200,,290,
pod_mkw,1000,makow,podolia,pdl,Podolia,podolia,pod,350,111,"",26.6880852450822,48.7902836831939,,,,,,,,,,,,,,,,,,,,,,,,,,150,,,218,240,233,247,,360,404,380,,,247,,,235,,350,
pod_zwnc,1000,zwaniec,podolia,pdl,Podolia,podolia,pod,1320,112,"",26.5,48.55,,,,650,954,180,,,950,,,,,738,,,835,,,676,,,700,934,485,1045,,,1325,1390,,,800,1356,1380,,1320,,791,610,1060,,,,
rus_bbc_bchw,1100,babice_bachow,przemysl,przmysl,Autonomous,przemysl,rus,60,113,"",24.65,49.5333333333333,,,,,,,,,,,,,,,,,,,,,,,50,,,,50,50,50,,60,60,60,60,60,60,60,,60,,,60,,60,
rus_blcz,1100,balicz,przemysl,przmysl,Autonomous,przemysl,rus,60,114,"",,,,,,,,,,,,,,,,,,,,,,60,,,,,,,,,,,,,,,,,,,,,60,,,,
rus_brcz,1100,bircza,przemysl,przmysl,Autonomous,przemysl,rus,140,115,"",22.4799927762449,49.6827438179612,,,,,,,,198,228,,200,200,150,150,150,,,,200,170,,150,150,120,130,150,150,120,120,120,120,120,114,114,114,114,140,150,,150,150,120,,114,
rus_bybl,1100,bybel,przemysl,przmysl,Autonomous,przemysl,rus,0,116,"",,,,,,,,,,,,,,,,,,,,,,,,,,,,,,,,,,,,,,,,500,,,,,,,
rus_chdnwcz,1100,chodnowicz,przemysl,przmysl,Autonomous,przemysl,rus,50,117,"",,,,,,,,,,,,,,,,,,,,,,50,,,,,,,,,,,,,,,,,,,,,,,,,
rus_chyrw,1100,chyrow,przemysl,przmysl,Autonomous,przemysl,rus,550,118,"",22.8512160134777,49.5356750820732,,,,,,,,,,,81,,,,,,,,,,,160,,,,,,,,,,,,,550,,,200,,,,,,,
rus_czrn,1100,czarna,przemysl,przmysl,Autonomous,przemysl,rus,80,119,"",,,,,,,,,,,,,,,,,,,,,80,80,,,,,80,,,,,,,,,,,,,,,,,,,,
rus_czpnwcz,1100,czupnowicz,przemysl,przmysl,Autonomous,przemysl,rus,50,120,"",,,,,,,,,,,,,,,,,,,,,,40,,,,50,,,,50,,,,,,,,,,,,,,,,,
rus_dbrml,1100,dobromil,przemysl,przmysl,Autonomous,przemysl,rus,2600,121,"",22.7820199767628,49.5714563340374,1000,1000,399,600,,,498,,,,,,,,,,,,,,,,200,,,,828,41,,,,,2117,2322,1793,3138,2600,514,57,375,1472,255,,3515,
rus_dbck,1100,dubiecko,przemysl,przmysl,Autonomous,przemysl,rus,40,122,"",22.3963050095301,49.8205162710256,,,,,,,,,,,,,,,,80,80,80,80,80,80,80,80,40,80,80,40,40,40,40,40,40,40,40,40,40,40,80,40,80,80,40,,40,
rus_dydn,1100,dydnia,przemysl,przmysl,Autonomous,przemysl,rus,40,123,"",22.1666666666667,49.6833333333333,,,,,,,,,,,,,,80,,80,80,,,,,,,,60,,,40,,,,,,,,,,,,,,,,,
rus_dynw,1100,dynow,przemysl,przmysl,Autonomous,przemysl,rus,1030,124,"",22.2387066300105,49.8155331366544,,,699,744,834,810,750,930,550,825,834,550,664,834,1100,1110,1110,1130,1130,1080,960,950,980,1002,1020,980,980,1020,980,,,,980,680,980,980,1030,1150,,950,950,,,,
rus_flsztyn,1100,felsztyn,przemysl,przmysl,Autonomous,przemysl,rus,150,125,"",22.9666666666667,49.5333333333333,,,,,,,,,,,,,,,,,,,,,,,,,,,,,,,108,108,,,,,,,108,50,,108,,150,
rus_frdrpl,1100,fredropol,przemysl,przmysl,Autonomous,przemysl,rus,40,126,"",22.75,49.7,,,,,,,,,,,,,,,50,,,,,,,,,30,,,,30,30,30,40,,40,,40,,40,,,,,40,,40,
rus_hskw,1100,husakow,przemysl,przmysl,Autonomous,przemysl,rus,120,128,"",22.9880212636859,49.7159816387095,,,,,,,,,300,,,,,,350,,,,300,300,,,400,420,300,420,420,420,400,340,300,,120,120,120,120,120,,,400,400,120,,120,
rus_hsw,1100,husow,przemysl,przmysl,Autonomous,przemysl,rus,50,129,"",22.2833333333333,49.9833333333333,,,,,,,,,,,30,,,,,50,,,,70,,,,,,,,50,50,50,,,,,,,,50,,50,,50,,,
rus_skn,1100,iskan,przemysl,przmysl,Autonomous,przemysl,rus,30,130,"",22.4333333333333,49.7833333333333,,,,,,,,,,,,,,,,,,,,40,,,,,40,,,,,,30,,,,,,,,,,,,,,
rus_zdbk,1100,izdebki,przemysl,przmysl,Autonomous,przemysl,rus,120,131,"",22.1166666666667,49.75,,,,,,,,,,,,,,,100,100,100,100,116,116,,120,100,100,116,,110,100,100,100,100,110,110,120,120,120,120,120,110,120,100,110,,120,
rus_jrslw,1100,jaroslaw,przemysl,przmysl,Autonomous,przemysl,rus,1977,132,"",22.7153476274968,50.0095083215402,,1710,,,,,,,,,,,960,400,,,,,,,470,,100,,,,60,208,,,,,1796,2509,,1567,1977,,,500,566,,,2793,
rus_jwrnk,1100,jawornik,przemysl,przmysl,Autonomous,przemysl,rus,110,133,"",22.3166666666667,49.7333333333333,,,,,,,,150,,,,112,80,80,,,,,,,,100,100,100,,,100,100,100,100,100,108,108,110,,110,110,100,108,,100,108,,110,
rus_jwrnk_rsk,1100,jawornik_ruski,przemysl,przmysl,Autonomous,przemysl,rus,30,134,"",22.3166666666667,49.7333333333333,,,,,,,,,,,,,,,,,,,,,,,,,,,,,,,,,,,,,,,,,100,30,,,
rus_krkwc,1100,krakowiec,przemysl,przmysl,Autonomous,przemysl,rus,410,135,"",23.1569190174614,49.9576305264845,,,699,641,612,498,548,498,450,300,300,300,462,450,500,633,633,570,540,570,480,420,440,440,400,440,440,440,410,410,410,,410,410,410,410,410,470,,400,430,410,,,
rus_krknc,1100,krukienice,przemysl,przmysl,Autonomous,przemysl,rus,0,136,"",23.1666666666667,49.6833333333333,,,,,,,,,,,,,,,,,,,45,40,,50,,,,,30,30,,,108,,,,,,,,,,,,,,
rus_krzszw,1100,krzeszow,przemysl,przmysl,Autonomous,przemysl,rus,40,137,"",22.3471344669615,50.398190472345,,,,,,,,,,,,,,,,,,,,,,,,,,,,,,,,,40,,,,,,40,,,,,,
rus_krzywcz,1100,krzywcza,przemysl,przmysl,Autonomous,przemysl,rus,50,138,"",22.5360033562236,49.7969008245707,,,,,,,,,,,,,,,,,,,,,,50,,,,,,,,,,,,,,,,50,,,,,,,
rus_lzjsk,1100,lezajsk,przemysl,przmysl,Autonomous,przemysl,rus,1050,139,"",22.4322199159075,50.2482101130387,,,910,999,999,999,999,999,900,999,,800,900,1000,999,1000,1000,1000,1000,1000,1000,,1000,,1000,1000,1000,500,1000,1000,1000,,1000,1000,1000,1000,1050,1000,1000,1000,1000,1000,,1049,
rus_lbmrz,1100,lubomierz,przemysl,przmysl,Autonomous,przemysl,rus,480,140,"",,,,,,,,,,,,,,,,,,,,,,,300,,,468,,,,,490,506,480,,480,480,,,480,,,,,,,,
rus_mdyk,1100,medyka,przemysl,przmysl,Autonomous,przemysl,rus,230,141,"",22.9333333333333,49.8,,,50,196,204,,198,198,219,,222,220,222,234,258,300,300,330,330,330,,350,150,230,330,150,150,230,230,230,230,,,,,,,360,,370,350,230,,,
rus_mscsk,1100,mosciska,przemysl,przmysl,Autonomous,przemysl,rus,1200,142,"",23.1404868823332,49.7926234475512,,,,,966,900,948,1089,994,,,700,540,,1050,999,1000,1500,1400,1400,1300,,1504,1100,1300,1450,1300,1300,1100,1440,,,1200,1200,1200,1200,1200,,,1296,1422,,,1200,
rus_nwmst,1100,nowomiasto,przemysl,przmysl,Autonomous,przemysl,rus,218,143,"",22.8666666666667,49.6166666666667,,,1435,,,,,,342,,,,,340,,,,,250,275,,,,,200,,,,,,260,400,200,200,200,200,218,,,,,,,200,
rus_nwslk,1100,nowosiolki,przemysl,przmysl,Autonomous,przemysl,rus,50,144,"",22.7333333333333,49.6333333333333,,,,,,,,,,,,,,,,,,,,,,,,,,,,,,,,,,50,,,,,,,,,,,
rus_plsk_knczg,1100,polski_kanczuga,przemysl,przmysl,Autonomous,przemysl,rus,340,145,"",22.41666667,49.98333333,,,198,,615,498,540,450,498,399,300,300,330,330,360,450,450,420,420,420,400,330,893,340,400,280,340,340,340,340,340,340,382,340,340,340,340,340,,340,540,340,,360,
rus_prchnk,1100,pruchnik,przemysl,przmysl,Autonomous,przemysl,rus,310,146,"",22.51228709487,49.9065297870308,,,378,309,438,438,450,420,186,360,390,400,340,352,372,400,400,370,370,,,,300,,,,300,300,300,300,300,,306,300,300,300,310,,,390,300,,,306,
rus_przwrsk,1100,przeworsk,przemysl,przmysl,Autonomous,przemysl,rus,1705,147,"",22.495735258181,50.0623245222614,,,388,399,,,,,,,,,,,,,,,,,522,,100,,400,,,,,,,,,828.7,681.5,1842,1705,60,,1874,500,,,969,
rus_rdymn,1100,radymno,przemysl,przmysl,Autonomous,przemysl,rus,130,148,"",22.83333333,49.95,,,,309,,,,,,,,200,150,150,150,,100,160,160,210,,150,,,,150,,,,,,,130,,,,,,,150,130,,,,
rus_rybtycz,1100,rybotycze,przemysl,przmysl,Autonomous,przemysl,rus,100,149,"",22.6440835588608,49.6555547118457,,,,,,,,198,198,,200,200,250,250,250,,,,300,200,,270,270,100,200,100,100,100,100,100,270,200,100,100,100,100,100,,,280,270,200,,120,
rus_sdw,1100,sadowa,przemysl,przmysl,Autonomous,przemysl,rus,270,150,"",,,,,,,651,498,498,408,378,,,50,,300,320,,420,420,420,420,420,300,300,306,420,300,300,300,270,270,270,,270,270,270,270,270,150,,270,300,270,,276,
rus_smbr,1100,sambor,przemysl,przmysl,Autonomous,przemysl,rus,740,151,"",23.1916205576575,49.5119098625276,,,,,,,,,420,,,390,,,,,,,750,500,,,736,740,,740,740,866,740,740,,,740,740,740,740,740,300,,320,700,,,,
rus_ssnc,1100,sosnica,przemysl,przmysl,Autonomous,przemysl,rus,100,153,"",22.6666666666667,49.9666666666667,,,,,,64,,,80,,,,108,108,,150,,120,120,130,100,,,,,,,,,,,,,,,,,,,,,,,,
rus_stnslwczyk,1100,stanislawczyk,przemysl,przmysl,Autonomous,przemysl,rus,40,154,"",24.9204940009383,50.1631001278898,,,,,,,,,,,,,,,,,,,,,,50,,,,,,,,,,,40,,,,,1200,,,,40,,,
rus_strsl,1100,starosol,przemysl,przmysl,Autonomous,przemysl,rus,200,155,"",22.9666666666667,49.4833333333333,,,,,,,,,420,,,,,400,400,,,,300,130,,350,300,250,130,300,200,250,200,200,310,,200,200,200,200,,270,,280,150,,,,
rus_stry_smbr,1100,stary_sambor,przemysl,przmysl,Autonomous,przemysl,rus,260,156,"",23.0087818959958,49.4320362635312,,,,,,,,,,,,300,,225,230,,,,175,175,,240,260,260,160,260,260,260,260,260,200,,260,260,260,260,,260,,260,260,,,,
rus_szmn,1100,szumin,przemysl,przmysl,Autonomous,przemysl,rus,50,157,"",22.9333333333333,49.5,,,,,,,,,,,,,,,,,,,,,,100,100,100,,50,100,100,,,130,60,40,,,50,,120,,,,160,,50,
rus_trnw,1100,tarnawa,przemysl,przmysl,Autonomous,przemysl,rus,80,158,"",22.8,49.55,,,,,,,,,,,,,,,,,,,,,,80,80,,,80,,,,80,,,,,,,,80,,,80,,,,
rus_trk_w_grch,1100,turka_w_gorach,przemysl,przmysl,Autonomous,przemysl,rus,600,159,"",23.03333333,49.15,,,,,,,,,,,,,,,,,,,,,,,300,300,,300,300,300,300,300,300,600,600,600,600,600,,300,600,300,300,,,600,
rus_wlw,1100,walawa,przemysl,przmysl,Autonomous,przemysl,rus,80,160,"",,,,,,,,,,,,,,,,,100,80,80,,,,,,,,,,,,,,,,,,,,,,,,,,,,
blz_wlk_czy,1100,wielkie_oczy,przemysl,przmysl,Autonomous,przemysl,blz,500,161,"",23.1593464476978,50.0134945736297,,,135,,267,180,150,123,123,174,177,176,175,190,200,270,270,300,300,300,300,450,480,,300,500,,,,,,,,,,,,470,,470,470,,,,
rus_wszn,1100,wisznia,przemysl,przmysl,Autonomous,przemysl,rus,0,162,"",23.3666666666667,49.7833333333333,,,,,,,,,,,,,,,,,,,,,,,,,,,,,,,,,,,,,,280,,,,,,,
rus_wysztyc,1100,wyszatyce,przemysl,przmysl,Autonomous,przemysl,rus,70,163,"",22.8833333333333,49.8333333333333,,,,,,,,,,,,,,,,,,,,,,,,,,,,70,,,,,,,,,,,,,,,,,
rus_ttls,1100,totals,przemysl,przmysl,Autonomous,przemysl,rus,21793,,"",,,16464,17262,5600,7373,11981,12235,14527,12327,12048,10970,8291,10388,9937,8349,10607,12562,12562,11300,12376,11063,13859,7755,11814,9574,10650,11114,11626,12398,9939,10434,9079,5075,12420,15136,12160,14023,13600,10563,2405,13687,13691,7381,,12454,
rus_twrz,1100,twierza,przemysl,przmysl,Autonomous,przemysl,rus,120,164,"",23.2333333333333,49.8,,,,,,,,,,,,,,,,,,100,100,100,,100,110,,100,,110,110,110,110,,120,,120,120,,,140,,140,110,120,,,
rus_strzyk,1100,ustrzyki,przemysl,przmysl,Autonomous,przemysl,rus,220,165,"",22.5833333333333,49.4333333333333,,,,,,,,,,,,,,,,,,,,,,,,150,,150,150,150,,,200,,,,220,,,90,,,,,,,
rus_wtln,1100,wietlin,przemysl,przmysl,Autonomous,przemysl,rus,400,166,"",22.8166666666667,50,,,,,,,,,,,,,300,312,330,420,420,400,420,420,,,,,400,,,,,,,,,,,,,,,,,,,,
rus_lnct,1100,lancut,przemysl,przmysl,Autonomous,przemysl,rus,280,167,"",22.2335999054101,50.0746711669128,,,,,,,198,225,166,,300,270,180,206,238,270,270,300,300,300,300,280,280,280,300,280,,280,280,280,280,,284,280,,,280,281,,280,280,,,,
rus_krsczyn,1100,krasiczyn,przemysl,przmysl,Autonomous,przemysl,rus,60,168,"",22.6599399449126,49.7709885240422,,,,,,,,,,,,,,,,,,,,,,,,,,,,,,,,132,60,60,60,60,60,,60,,,72,,60,
rus_klcz_nklwck,1100,klucz_niklowiecki,przemysl,przmysl,Autonomous,przemysl,rus,50,169,"",,,,,,,,,,,,,,,,,,,,,,,,,,36,,,50,36,40,40,50,50,,,,,,832,,,,50,,,
rus_mnstrz,1100,manasterz,przemysl,przmysl,Autonomous,przemysl,rus,100,170,"",22.6666666666667,50.1166666666667,,,,,,,,,,,,,,130,,150,,,,,,100,100,100,100,,100,100,,,,,,,,,,100,,100,100,,,,
rus_zln,1100,zulin,przemysl,przmysl,Autonomous,przemysl,rus,219,171,"",23.7666666666667,49.1833333333333,,,240,210,219,,,,,,,,,,,,,,,,,,,,,,,,,,,,,,,,,,,,,,,,
brc_brszd,1201,berszada,rus,rs,Rus,rus_brc_kij_pod,brc,0,172,"",29.5106645652708,48.3653417998653,,,,,,,,,,,,,,,,,,,,,,,,,,,,,,,,,400,,,,650,,,,,,,1206,
kij_brszczjwk,1201,borszczejowka,rus,rs,Rus,rus_brc_kij_pod,kij,0,173,"",,,,,,,,,,,,,,,,,,,,,,,,,,,,,,,,,,,,,,,,,,,,,,240,
brc_bswk,1201,bosowka,rus,rs,Rus,rus_brc_kij_pod,brc,0,174,"",30.6333333333333,49.2333333333333,,,,,,,,,,,,,,,,,,,,,,,,,,,,,,,,,100,100,150,190,250,,,,,,,,
kij_brclw,1201,braclaw,rus,rs,Rus,rus_brc_kij_pod,kij,0,175,"",28.9250894287188,48.8222842841435,,,,100,100,50,50,75,95,55,75,75,75,100,100,101,120,,100,75,140,180,250,80,140,200,200,80,80,,200,250,350,,,500,550,180,350,180,200,38,,625,
kij_brlw,1201,brailow,rus,rs,Rus,rus_brc_kij_pod,kij,0,176,"",28.1495736322789,49.1189899552346,,,,198,200,250,150,80,,210,150,150,150,150,150,151,151,,80,130,180,,200,200,150,200,200,200,200,200,,375,400,318,,,,250,400,300,260,375,,,
kij_cknwk,1201,cekinowka,rus,rs,Rus,rus_brc_kij_pod,kij,0,177,"",28.3166666666667,48.15,,,,,,,,,,,,,,,,,,,,,,,,,,,,,,,,,600,660,644,900,,,,,,,,1025,
kij_chszjwk,1201,chaszejowka,rus,rs,Rus,rus_brc_kij_pod,kij,0,178,"",,,,,,,,,,,,,,,,,,,,,,,,,,,,,,,,,,,,,,,,,,,,,,100,
kij_chmlnk,1201,chmielnik,rus,rs,Rus,rus_brc_kij_pod,kij,0,179,"",27.95,49.55,,,,198,,,,,,,,,,,,,,,,,,,,,,,,,,,,,,,,,,,,,,,,,
kij_chwszczw,1201,chwaszczow,rus,rs,Rus,rus_brc_kij_pod,kij,0,180,"",,,,,,,,,,,,,,,,,,,,,,,,,,,,,,,,,,,,,,,250,,,,,,,,
kij_czklnk,1201,czekielnik,rus,rs,Rus,rus_brc_kij_pod,kij,0,181,Chechelnyk,29.3667,48.2167,,,,,,,,,,,,,,,,,,,,,,,,100,,,,80,,,,,,,,,,,,,,,,,
kij_czrnjwc,1201,czerniejowce,rus,rs,Rus,rus_brc_kij_pod,kij,0,182,"",28.1166666666667,48.5333333333333,,,,,,,,,,,,,,,,,,,,,,,,,,,,,,,,,,,,,,,,,,,,100,
kij_dszw,1201,daszow,rus,rs,Rus,rus_brc_kij_pod,kij,0,183,"",29.412887567286,49.0082710774274,,,,,,,,,,,,,,,,,,,,,,,,70,,,,50,70,70,70,200,300,330,380,,700,,300,,,213,,800,
kij_dznkw,1201,dziunkow,rus,rs,Rus,rus_brc_kij_pod,kij,0,184,"",29.4410383064258,49.4538982937316,,,,,,,,,,,,,,,,,,,,,,,,,,,,,,,,,,,,,,,,,,,,200,
kij_dωwngrdk,1201,dωwinogrodka,rus,rs,Rus,rus_brc_kij_pod,kij,0,185,Dzyunkiv,29.45,49.45,,,,,,,,,,,,,,,,,,,,,,,,,,,,,,,,,100,100,150,190,250,,115,,,,,240,
kij_glgrz,1201,gologorz,rus,rs,Rus,rus_brc_kij_pod,kij,0,186,"",,,,,,,,,,,,,,,,,,,,,,,,,,,,,,,,,,,,,,,,,,,,606,,,
kij_grnw,1201,granow,rus,rs,Rus,rus_brc_kij_pod,kij,0,187,Hraniv,29.5667,48.8667,,,,,,,,,,30,60,40,,,350,353,353,,200,200,160,300,150,300,240,130,150,250,300,300,350,500,600,660,750,900,1100,150,600,150,,438,,1025,
kij_grygrycz,1201,grygrycz,rus,rs,Rus,rus_brc_kij_pod,kij,0,188,"",,,,,,,,,,,,,,,,,,,,,,,,,,,,,,,,,,,,,,,,,,,,,,100,
kij_grnwc,1201,gurniewice,rus,rs,Rus,rus_brc_kij_pod,kij,0,189,"",,,,,,,,,,,,,,,,,,,,,,,,,,60,,,,30,,,,,,,,,,,,,,,,,
kij_hjsn,1201,hajsan,rus,rs,Rus,rus_brc_kij_pod,kij,0,190,Haysyn,29.4,48.8,,,,,,,,,,,,,,,,,,,,,,,,200,,,,200,,,,,150,170,200,300,400,,250,,,,,375,
kij_lnc,1201,ilince,rus,rs,Rus,rus_brc_kij_pod,kij,0,191,"",29.2253143105871,49.1069011372157,,,,,,,,,,,,,,,,,,,50,80,,180,180,,90,200,,,200,200,200,320,400,440,440,570,500,180,400,180,180,250,,,
kij_jhrlk,1201,jahorlik,rus,rs,Rus,rus_brc_kij_pod,kij,0,192,"",29.15,47.3666666666667,,,,,,300,200,200,201,210,210,,,100,110,111,120,,,40,140,150,150,150,140,180,200,100,100,100,100,220,280,310,350,455,600,150,280,180,150,187,,570,
kij_jnw,1201,janow,rus,rs,Rus,rus_brc_kij_pod,kij,0,194,"",,,,,,,,,,,,,,,,,,,,,,,,,,,,27,30,,,,,102,,,,,,,,,,125,,,
kij_jzfgrd,1201,jozefgrod,rus,rs,Rus,rus_brc_kij_pod,kij,0,195,balta,29.6219444444444,47.94,,,,,,,,,,,,,,,,,,,,,,,,,,,,,,,60,,600,,1160,1600,,,250,,,125,,2000,
kij_klnk,1201,kalnik,rus,rs,Rus,rus_brc_kij_pod,kij,0,196,"",29.3833333333333,49.0333333333333,,,,,,,,,,,,,,,,,,,,,,,,,,,,,,,,,100,110,150,190,220,,100,,,,,242,
pod_ktjgrd,1201,kitajgrod,rus,rs,Rus,rus_brc_kij_pod,pod,0,197,"",26.8023486666688,48.6368074298325,,,,,,,,,,,,,,,,,,,,,,,,,,40,40,,,,,,,,,,,,,,,,,,
kij_kchnwk,1201,kochanowka,rus,rs,Rus,rus_brc_kij_pod,kij,0,198,"",28.7430692832033,49.2789983136466,,,,,,,,,,,,,,,,,,,50,20,,60,60,60,50,60,60,60,60,60,50,200,220,165,100,60,,30,220,30,60,150,,,
kij_krty,1201,kruty,rus,rs,Rus,rus_brc_kij_pod,kij,0,201,"",29.2105845354031,47.9417938099241,,,,,,,,,,,,,,,,,,,,,,,,350,,,,250,250,250,350,,670,,790,930,1150,,670,,,500,,1165,
kij_kblcz,1201,kublicz,rus,rs,Rus,rus_brc_kij_pod,kij,0,202,"",29.5666666666667,48.7166666666667,,,,,,,,,,,,,,,,,,,,,,,,60,,,,,,,,200,100,110,120,150,200,,80,,,,,200,
kij_kzmnk,1201,kuzminka,rus,rs,Rus,rus_brc_kij_pod,kij,0,203,Kozhanka,29.2833,49.3,,,,,,,,,,,,,,,,,,,,,,,,,,,,,,,,,100,80,120,180,200,,,,,,,250,
kij_kznc,1201,kuznica,rus,rs,Rus,rus_brc_kij_pod,kij,0,204,"",28.7333333333333,48.4333333333333,,,,,150,,,,,,,,,,,,,,,,,,,,,,,,,,,,,,,,,,,,,,,,
kij_kmjgrd,1201,komajgrod,rus,rs,Rus,rus_brc_kij_pod,kij,0,205,"",28.6166666666667,48.5333333333333,,,,,,,,,,,,,,,,,,,,,,,,50,,,,30,80,80,100,170,500,270,280,350,500,,,,,125,,440,
kij_krsn,1201,krasne,rus,rs,Rus,rus_brc_kij_pod,kij,0,206,"",28.4060001247807,48.9102824563786,,,,,,,,,,,,,,,,,,,,,150,214,350,500,120,370,450,450,500,,,800,,,536,776,700,100,850,180,310,,,,
kij_ltyn,1201,lityn,rus,rs,Rus,rus_brc_kij_pod,kij,0,207,"",28.0737794326512,49.3336568160142,,,,,100,,,,100,105,108,,,,120,121,130,,50,100,,120,135,150,110,100,100,135,150,150,150,,350,790,390,500,500,135,350,150,135,,,625,
kij_mrkwk,1201,markowka,rus,rs,Rus,rus_brc_kij_pod,kij,0,208,"",28.6166666666667,49.0833333333333,,,,,,,,,,,,,,,,,,,,,,,,,,,,,,,,,,110,110,180,200,,,,,,,230,
kij_mstkwk,1201,miastkowka,rus,rs,Rus,rus_brc_kij_pod,kij,0,209,"",28.6984250967567,48.3706534511778,,,,,,,,,,,,,,,,,,,,,,,,500,,,150,350,500,500,600,1080,,,854,1040,1300,,1000,,60,875,,1300,
kij_mnstrzysk,1201,monasterzyska,rus,rs,Rus,rus_brc_kij_pod,kij,0,210,"",25.16666667,49.08333333,,,,,,,,,,,,,,,,,,,,,,,,50,,,,,,,,,100,200,250,200,300,,,,,,,315,
kij_mrchw,1201,murachwa,rus,rs,Rus,rus_brc_kij_pod,kij,0,211,"",28.21666667,48.78333333,,,,,,,100,100,100,105,110,,80,,100,101,120,,,,300,80,230,200,60,230,200,200,200,200,200,300,,,,400,400,50,,100,200,63,,500,
kij_nmrw,1201,niemirow,rus,rs,Rus,rus_brc_kij_pod,kij,0,212,"",,,150,150,,,,,300,,,,,,,,500,303,,,150,250,,300,350,400,300,400,400,400,400,400,,,600,,,,1000,360,,360,400,875,,1340,
kij_pczr,1201,pieczara,rus,rs,Rus,rus_brc_kij_pod,kij,0,214,"",28.7166666666667,48.85,,,,,,,,,,,,,,,,,,,,,,,,,,,,,,,,,,,,,,,,,50,,,,
kij_przylk,1201,przyluka,rus,rs,Rus,rus_brc_kij_pod,kij,0,215,"",28.7281811365107,49.3883153183818,,,,,,,,,,,,,,,,50,,,70,80,,140,123,200,90,150,150,200,200,200,200,,300,330,380,730,900,100,,150,150,125,,925,
kij_rjgrd,1201,rajgrod,rus,rs,Rus,rus_brc_kij_pod,kij,0,216,"",22.7,53.73333333,,,,,,,,,,,,,,,,,,,,,,,,100,,,,250,100,100,100,200,,80,80,73.1,200,,241,,,188,,200,
kij_rszkw,1201,raszkow,rus,rs,Rus,rus_brc_kij_pod,kij,0,217,"",25.4166666666667,48.7333333333333,,,,399,200,602,400,350,357,370,450,450,510,,500,505,505,,150,200,,375,,1000,350,,500,750,,,,2400,1800,,,,2300,375,2300,375,400,1875,,3555,
kij_swrn,1201,sawran,rus,rs,Rus,rus_brc_kij_pod,kij,0,219,"",30.0861639352275,48.1423384208255,,,,,,,,,,,,,,,,,,,,,,,,80,,,,80,,,,,,,,,,,,,,,,,
kij_slszcz,1201,sieliszcza,rus,rs,Rus,rus_brc_kij_pod,kij,0,220,"",25.28333333,48.58333333,,,,,,,,,,,,,,,,,,,,,,,,,,,,,,,,,,,,,150,,,,,,,100,
kij_slsz,1201,salasze,rus,rs,Rus,rus_brc_kij_pod,kij,0,221,"",,,,,,,,,,,,,,,,,,,,,,,,,,,,,,,,,,,,110,110,180,200,,,,,,,230,
kij_sklwk,1201,sokolowka,rus,rs,Rus,rus_brc_kij_pod,kij,0,222,"",30.144764312639,49.0180452276019,,,,,,,,,,,,,,,,,,,,,,,,50,,,,,,,,,100,220,220,300,100,,50,,,,,,
kij_strzyzwk,1201,strzyzawka,rus,rs,Rus,rus_brc_kij_pod,kij,0,223,"",28.468315310115,49.3014788264923,,,,,76,100,,,,,,,,,,,,,,,,,,,,,,,,,,,,,,,,,,,,,,,
kij_szpkwc,1201,szopkowice,rus,rs,Rus,rus_brc_kij_pod,kij,0,224,"",,,,,,,,,,,,,,,,,,,,,,,,,,,,,,230,,,,,,,,,,,,,,,,,
kij_tplc,1201,teplic,rus,rs,Rus,rus_brc_kij_pod,kij,0,225,"",29.75,48.6666666666667,,,,,,,,,,,,,,,,,,,,,,,,,,,,30,,,,,,,,,,,,,,,,,
kij_trlwk,1201,terlowka,rus,rs,Rus,rus_brc_kij_pod,kij,0,226,"",27.5666666666667,49.35,,,,,,,,,,,,,,,,,,,,,,,,150,,,,30,,,,,,,,,,,,,,,,,
kij_tmszpl,1201,tomaszpol,rus,rs,Rus,rus_brc_kij_pod,kij,0,227,"",28.524229359565,48.5461841977478,,,,,,,,,,,,,,,,,,,,,,,110,250,,180,200,21,250,250,300,625,,770,670,870,,,,,150,500,,1100,
kij_ttls,1201,totals,rus,rs,Rus,rus_brc_kij_pod,kij,0,,"",,,150,150,,895,1176,1702,1600,1205,1203,1450,1313,929,1045,400,2290,2138,1861,,1000,1405,1400,2639,2841,6630,2200,2817,3560,5493,4760,3760,4480,10117,10820,7801,11186,13654,17670,2500,10686,2905,3245,9810,,22976,
kij_trstnc,1201,trostianiec,rus,rs,Rus,rus_brc_kij_pod,kij,0,228,"",29.2333333333333,48.5166666666667,,,,,,,,,,,,,,,,,,,,,,,,50,,,,21,,,,,100,110,50,50,,,,,,,,78,
kij_tlczyn,1201,tulczyn,rus,rs,Rus,rus_brc_kij_pod,kij,0,229,"",28.8586292078969,48.6639806931607,,,,,,,,,,,,50,50,50,60,60,80,,,80,150,180,203,200,90,230,200,200,200,200,200,375,300,318,,,,200,300,250,200,75,,,
kij_tr,1201,turia,rus,rs,Rus,rus_brc_kij_pod,kij,0,230,"",,,,,,,,,,,,,,,,,,,,,,,,,,,,,,150,,,,,,,,,,,,,,,,,
kij_tywrw,1201,tywrow,rus,rs,Rus,rus_brc_kij_pod,kij,0,231,"",28.5244842256295,49.0061465955078,,,,,,,,,,,,,,,,,,,,,,,,150,,,,86,150,150,250,600,250,,,,550,,600,,,413,,,
kij_mn,1201,uman,rus,rs,Rus,rus_brc_kij_pod,kij,0,232,"",30.2097103404636,48.7494787258727,,,,,,,,,,,,,,,,,,,,,,,,50,,,,,,,,,100,110,,110,100,,100,,,,,200,
kij_wnnc,1201,winnica,rus,rs,Rus,rus_brc_kij_pod,kij,0,233,"",28.4453063565441,49.2190502787917,,,,,300,300,300,300,250,260,150,140,180,,250,252,252,,100,150,180,300,300,300,220,,200,,400,,350,450,,,498.6,,,200,500,200,300,,,625,
pod_ldwk,1201,uladowka,rus,rs,Rus,rus_brc_kij_pod,pod,0,234,"",28.2333333333333,49.5,,,,,50,100,100,100,100,105,,24,,,50,30,30,,,,,60,50,70,50,40,40,50,100,100,200,150,150,170,180,200,350,40,180,40,40,63,,250,
kij_wrszylwk,1201,woroszylowka,rus,rs,Rus,rus_brc_kij_pod,kij,0,236,"",28.3404125988615,49.0374429958322,,,,,,,,,,,,,,,,,,,,,,,,,,,,,,,,,300,330,330,,250,,,,,,,,
kij_zdykwcz,1201,zadykowicz,rus,rs,Rus,rus_brc_kij_pod,kij,0,237,"",,,,,,,,,,,,,,,,,,,,,,,,,,200,,,,200,200,,,,100,,,,,,,,,,,,
pod_znkw,1201,zinkow,rus,rs,Rus,rus_brc_kij_pod,pod,0,238,"",27.0737578551854,49.0927358718654,,,,,,,,,,,,,,,,,,,,,,,,,,,,,,,,,,,100,180,,,,,,,,,
kij_zrnszcz,1201,zorniszcza,rus,rs,Rus,rus_brc_kij_pod,kij,0,239,"",29.083440719742,49.056253268457,,,,,,,,,,,,,,,,,,,,,,,,,,,,,,,,,100,110,,,200,,,,,,,,
kij_zwrzchwk,1201,zwierzchowka,rus,rs,Rus,rus_brc_kij_pod,kij,0,240,"",29.1745333583559,48.4433278352367,,,,,,,,,,,,,,,,,,,,,,,,,,50,50,80,50,50,50,200,200,220,228,400,450,,200,,,188,,500,
kij_ldyzyn,1201,ladyzyn,rus,rs,Rus,rus_brc_kij_pod,kij,0,241,"",29.2571324292044,48.6814890613505,,,,,,,,,,,,,,,,,,,,,,,,150,,,,250,220,200,200,400,,,415,,,,,80,,313,,,
kij_lpwc,1201,lipowiec,rus,rs,Rus,rus_brc_kij_pod,kij,0,242,"",29.0602498441165,49.2179710240081,,,,,,,,,,,,,,,,,,,,,,,,150,,30,40,,300,,,,,,,,,,,,,,,,
hlc_bwrw,1202,baworow,rus,rs,Rus,rus_halicz,hlc,150,244,"",25.7166666666667,49.45,,,150,,,,,,,,,,,,,,,,,,,,,,,,,,,,,,,,,,,,,,,,,,
hlc_blbznc,1202,biloboznica,rus,rs,Rus,rus_halicz,hlc,0,246,"",25.6833333333333,49.05,,,,225,,,,,,,,,,,,,,,,,,,,,,,,,,,,,,,,,,,,,,,,,
hlc_bhrdczny,1202,bohorodczany,rus,rs,Rus,rus_halicz,hlc,1100,247,"",24.5389368062523,48.808608313829,756,756,918,1206,436,1056,1048,644,900,876,1600,1352,1352,1250,650,1000,1000,1000,1000,1000,1000,1250,,,1000,,1250,,1375,,,,1300,1430,954,1160,1100,1250,1600,1250,1250,1687,,,
hlc_blszwc,1202,bolszowiec,rus,rs,Rus,rus_halicz,hlc,384,248,"",24.7463888888889,49.1855555555556,,,,,,,,,,,,,,,,,,,,,,125,125,125,100,125,125,125,200,200,200,300,,,,,,125,300,125,125,288,,,
hlc_bczcz,1202,buczacz,rus,rs,Rus,rus_halicz,hlc,1250,249,"",25.3748517635572,49.0569249549936,262,262,849,1380,1054,663,750,1727,1100,936,566,936,1180,1480,,,,1319,1319,1319,1419,1407,1419,1419,1419,1419,1419,1419,1250,1250,1250,,,1405,1250,,,1419,,1419,1419,313,,,
hlc_bdznw,1202,budzanow,rus,rs,Rus,rus_halicz,hlc,510,250,"",25.7198215685299,49.1611708042141,,,450,249,268,165,276,410,380,400,60,119,60,,,,,,350,,,362,562,862,450,435,,,500,500,500,,300,400,400,510,,562,400,562,562,125,,,
hlc_brsztyn,1202,bursztyn,rus,rs,Rus,rus_halicz,hlc,800,252,"",24.6384592929678,49.2571511312529,86,86,,346,68,250,200,350,350,300,450,468,468,700,700,707,707,700,750,700,700,825,793,753,825,825,825,825,750,750,750,1250,,1380,,500,800,825,1560,825,825,1250,,,
hlc_czrnlc,1202,czernelica,rus,rs,Rus,rus_halicz,hlc,300,254,"",25.4333333333333,48.8166666666667,241,241,,100,,100,100,100,100,100,100,100,100,100,100,100,100,100,100,100,100,80,100,100,100,100,100,100,100,110,110,200,150,128,128,240,,100,200,100,100,195,,300,
hlc_czrtkw,1202,czortkow,rus,rs,Rus,rus_halicz,hlc,1000,255,"",25.8,49.0166666666667,344,344,,1200,286,1633,1050,1250,800,1050,1020,200,650,410,,,,284,142,224,1245,1900,1400,,,1400,1400,,,1500,,1600,1600,1700,1700,1600,1000,1900,1700,1900,1900,400,,1000,
hlc_dltyn,1202,delatyn,rus,rs,Rus,rus_halicz,hlc,450,256,"",24.6166666666667,48.5333333333333,,,,,,,,,,,,180,200,200,200,202,202,202,202,202,222,277,273,273,222,273,273,273,300,300,300,300,300,265,265,340,450,277,312,273,,263,,400,
hlc_gwωdzc,1202,gwoωdziec,rus,rs,Rus,rus_halicz,hlc,722,257,"",25.28333333,48.58333333,,,,486,,,,,,360,25,,,,160,454,454,,454,444,600,760,,,600,,750,750,750,,,600,680,722,722,,,750,680,750,750,644,,,
hlc_hlcz,1202,halicz,rus,rs,Rus,rus_halicz,hlc,280,258,"",24.7533230461832,49.1033340564261,137,323,,227,200,300,50,150,,258,260,200,160,160,536,161,161,161,161,161,177,220,210,220,167,220,220,220,137,137,,,500,,,280,,220,260,220,220,98,,,
hlc_hrdnk,1202,horodenka,rus,rs,Rus,rus_halicz,hlc,850,259,"",25.4878415392055,48.6804103695425,817,817,,1506,1254,1656,1560,1456,1600,1299,1200,1451,1456,1490,,,1450,1300,1260,1300,1400,850,1000,1000,1400,1000,1000,920,850,850,950,,,901,850,,,1000,,1000,1000,1063,,,
hlc_jnw,1202,janow,rus,rs,Rus,rus_halicz,hlc,500,1300,"",,0.7944444444444,459,459,880,1053,450,298,851,728,1000,1023,950,,,1000,,800,800,800,800,700,650,974,812,812,650,812,812,812,650,650,,,800,750,750,,500,812,,812,812,125,,500,
hlc_kklnk,1202,kakielniki,rus,rs,Rus,rus_halicz,hlc,40,263,"",,,,,,,,,,40,,,,,,,,,,,,,,,,,,,,,,,,,,,,,,,,,,,,,
hlc_klsz,1202,kalusz,rus,rs,Rus,rus_halicz,hlc,2800,264,"",24.3748590363421,49.0139183035606,1350,1350,,1560,2322,1803,1888,2145,1920,2316,2000,2200,1905,2200,2000,2388,2400,2400,2400,2400,2640,,3225,,2640,,382,,3279,,2400,,864,1700,2400,,2800,2957,2900,3300,,425,,3560,
hlc_kmnk,1202,kamionka,rus,rs,Rus,rus_halicz,hlc,150,265,"",,,,,,,,100,100,,,,,,,,100,101,101,101,101,101,,100,80,80,101,80,80,80,88,88,96,125,150,108,108,60,150,80,150,80,80,125,,,
hlc_kpyczync,1202,kopyczynce,rus,rs,Rus,rus_halicz,hlc,1000,266,"",25.9166666666667,49.1,,,150,,,,200,200,,,198,200,200,216,216,216,220,216,216,230,280,330,217,,230,,,,330,330,,,500,530,580,700,,330,,330,,500,,1000,
hlc_klmyj,1202,kolomyja,rus,rs,Rus,rus_halicz,hlc,1850,268,"",25.0412777077861,48.5351097772064,1040,1040,,1206,1136,1800,1560,900,1000,1854,1854,1189,1300,1350,1240,1250,1250,1250,1250,1250,1250,1800,,,1250,,1400,2200,,,,,1850,,,,,1562,,1562,1400,375,,,
hlc_ksw,1202,kosow,rus,rs,Rus,rus_halicz,hlc,1650,270,"",25.0984845776194,48.3253174774479,524,524,,300,178,200,206,150,200,410,250,270,260,360,350,,150,100,100,150,300,300,300,400,300,300,300,300,600,600,600,948,,,,,,300,1050,300,300,938,,1650,
hlc_klczkwc,1202,kulaczkowce,rus,rs,Rus,rus_halicz,hlc,200,271,"",25.3083461746369,48.5569863674305,172,172,,,418,413,347,224,,360,360,250,200,217,220,220,,100,100,150,,217,206,206,165,206,206,206,226,226,234,375,,370,200,,200,206,400,206,206,375,,,
hlc_mrtynw,1202,martynow,rus,rs,Rus,rus_halicz,hlc,150,272,"",24.5636766381681,49.2188789147777,,,,60,,,,,,,,,,,,,,,,,,60,60,50,50,60,60,60,50,50,,,180,120,120,,150,60,,,,,,,
hlc_kty,1202,kuty,rus,rs,Rus,rus_halicz,hlc,900,273,"",25.1833333333333,48.2666666666667,,,,,,300,300,,,210,310,322,323,50,,353,353,350,400,400,550,450,545,520,550,545,520,520,,572,,1250,900,,,,,600,,500,322,1250,,,
hlc_mrympl,1202,maryampol,rus,rs,Rus,rus_halicz,hlc,0,274,"",24.85,49.0333333333333,215,215,,301,,,,,300,,,,,,300,303,303,303,303,303,333,380,,350,333,350,350,350,385,,,,,,,,,,,350,,625,,,
hlc_mklnc,1202,mikulince,rus,rs,Rus,rus_halicz,hlc,800,276,"",25.6211920366437,49.3866642018069,451,451,750,498,542,1116,671,872,1000,1030,1030,,,900,,,,700,650,650,,,,812,,,,,,,,,950,,800,,,,,,,208,,,
hlc_mnstrzysk,1202,monasterzyska,rus,rs,Rus,rus_halicz,hlc,1700,277,"",25.1801270737996,49.097857454165,344,344,,903,240,828,670,497,850,1030,975,130,900,1100,1100,1119,1200,900,,400,900,1125,,,400,,,1125,,,,,,1910,,1400,1700,1125,,1125,413,315,,,
hlc_ndwrn,1202,nadworna,rus,rs,Rus,rus_halicz,hlc,2400,278,"",24.5705987477066,48.6306782965941,1032,1032,954,858,1686,1977,1289,550,350,1699,2000,1270,1200,1500,1580,1500,1546,1500,1578,1578,1638,2398,,2048,1638,1648,1898,2048,1320,1320,1320,,1950,2070,2010,2630,2400,2048,1950,2048,,330,,4034,
hlc_brtyn,1202,obertyn,rus,rs,Rus,rus_halicz,hlc,100,280,"",25.1718977664166,48.7001401656673,,,,,,,,,,,,,,,,,,,,,,,,,,,,,,50,50,150,100,,,,,,150,,,,,,
hlc_pstyn,1202,pistynia,rus,rs,Rus,rus_halicz,hlc,375,282,"",,,,,,,,,,,,,,,,,,,,,,,,,,,,,,,,80,80,200,,260,236,300,,,,,,240,,375,
hlc_pdhjc,1202,podhajce,rus,rs,Rus,rus_halicz,hlc,3500,283,"",25.127734045462,49.2678300974148,,,,999,218,530,,,,1500,1500,633,299,,1680,1737,,,,,1683,2016,,,,,666,167,1988,1835,,,,,,700,,1757,2400,,,490,,3500,
hlc_pdkmn,1202,podkamien,rus,rs,Rus,rus_halicz,hlc,180,284,"",25.3189246883268,49.9428889324104,,16,,,,,,,,,100,,,,,,,,,,,,,,150,,180,,,,,,,,,,,,,,,,,,
hlc_ptk,1202,potok,rus,rs,Rus,rus_halicz,hlc,200,285,Zolotyy Potik,25.3428,48.9089,129,129,,300,,,,336,,310,,,,350,,353,353,353,353,353,388,300,300,300,388,300,300,,300,300,300,375,,200,200,,200,300,,300,300,375,,400,
hlc_rhtyn,1202,rohatyn,rus,rs,Rus,rus_halicz,hlc,2000,286,"",24.6324716095947,49.4066408771173,713,713,582,1041,1036,666,520,,400,412,1236,1181,1300,1450,1450,1464,1529,1529,1400,2020,1550,449,1913,,,700,733,,1800,,,,2300,2200,,2000,,,2300,,763,400,,,
hlc_sklt,1202,skalat,rus,rs,Rus,rus_halicz,hlc,700,287,"",25.9685877987634,49.4341351417527,,,,,,,,,,,,,,,,,419,400,400,342,400,,,,,,,,,,,,700,,,,,,,,,150,,700,
hlc_sntyn,1202,sniatyn,rus,rs,Rus,rus_halicz,hlc,0,288,"",25.5666666666667,48.45,860,860,774,1656,936,1650,,,600,1700,400,1068,1668,1780,1550,1564,1564,1564,1564,1560,1565,1350,1100,1100,1569,1100,1100,1100,,,,,,,,,,1162,,1100,1100,375,,,
hlc_sltwn,1202,solotwina,rus,rs,Rus,rus_halicz,hlc,900,289,"",24.4365220360386,48.6983706605418,387,387,702,396,768,,780,625,500,618,450,468,509,750,550,750,600,700,700,600,550,849,637,240,550,694,630,687,,500,500,750,800,,860,1020,900,687,850,687,687,750,,,
hlc_stnslww,1202,stanislawow,rus,rs,Rus,rus_halicz,hlc,200,290,"",24.7029830495295,48.9125403005606,324,324,1164,945,750,1650,273,334,450,1182,,820,1560,1350,1150,1666,1666,1315,1666,1660,1555,2011,962,2212,1256,853,2174,2183,,2255,,,2600,,,200,,1982,,2212,2064,538,,,
hlc_strsw,1202,strusow,rus,rs,Rus,rus_halicz,hlc,100,292,"",25.6224067068419,49.3494786316431,,,,180,158,,,,100,,,,,,,,100,,,,,,,,,,,,,,,,,,,,,,,,,,,,
hlc_stpczt,1202,stupczate,rus,rs,Rus,rus_halicz,hlc,892,293,"",24.9630461143333,48.4075681023789,266,266,,,818,791,730,770,500,515,615,560,700,900,900,750,700,650,650,650,715,894,892,,715,892,892,892,,,,,,,,,,894,,894,892,,,,
hlc_schstw,1202,suchostaw,rus,rs,Rus,rus_halicz,hlc,300,294,"",25.8590199101616,49.1611708042141,,,,,,,300,,,300,300,,,,,,,,,,,,,,,,,,,,,,,,,,,,,,,,,,
hlc_trnpl,1202,tarnopol,rus,rs,Rus,rus_halicz,hlc,4200,295,"",25.5912056931086,49.5592747346345,,,1299,2268,1988,2009,1543,2390,1155,1878,3500,846,870,,,,614,1458,3024,1816,1539,,257,,1779,,145,,50,,,,,,,,,,,,,,,4200,
hlc_ttls,1202,totals,rus,rs,Rus,rus_halicz,hlc,47006,,"",,,13521,13623,13996,27559,23578,26723,21705,22330,19915,30316,28144,21349,25058,26025,21315,25626,28698,28125,30618,29300,29079,28555,19377,16213,25928,17368,24467,19393,22910,16740,11585,8823,25272,20043,16783,19044,17250,29851,26322,26833,19153,18649,,28699,
hlc_twst,1202,towste,rus,rs,Rus,rus_halicz,hlc,600,296,"",25.7333333333333,48.85,,,,180,218,150,150,160,150,160,160,165,165,220,220,222,222,222,222,222,,,,300,111,,,,400,400,400,,700,,560,700,600,300,700,300,,650,,,
hlc_tysmnc,1202,tysmenica,rus,rs,Rus,rus_halicz,hlc,1300,297,"",24.85,48.9,1125,1125,2100,3542,4144,1154,2024,1836,2550,3876,2196,1361,2747,1100,1331,3467,5720,2773,4278,3956,1630,1677,,,2295,1000,1521,,3770,,,,538,,,1054,1300,1168,,,,600,,2300,
hlc_tlmcz,1202,tlumacz,rus,rs,Rus,rus_halicz,hlc,250,298,"",25.0246329567424,48.8685346957074,,,,,,,200,,,,,,,,120,,,,,,,,,,,,500,,,,,,,250,,,,,,250,,,,,
hlc_sc,1202,uscie,rus,rs,Rus,rus_halicz,hlc,880,299,"",24.9666666666667,49.0333333333333,344,344,699,675,666,982,786,840,450,774,1100,782,832,870,870,770,789,700,700,700,700,845,,875,700,875,,875,,400,775,,,,590,680,,,500,210,507,,,880,
hlc_trmbwl,1202,trembowla,rus,rs,Rus,rus_halicz,hlc,600,301,"",25.7025749597079,49.2940958692724,474,474,693,402,516,637,280,926,760,1185,227,832,750,500,,,,650,,,,,373,,,,200,,,,,,910,,,,,750,910,,,175,,,
hlc_wjnlw,1202,wojnilow,rus,rs,Rus,rus_halicz,hlc,800,302,"",24.4898404829322,49.1176927191802,266,266,330,309,418,452,120,448,400,412,412,428,350,422,442,446,446,446,446,,,,460,,350,,,,437,495,813,,,,,200,800,500,850,,,,,,
hlc_zbltw,1202,zablotow,rus,rs,Rus,rus_halicz,hlc,1700,303,"",25.2800288279972,48.4609054638133,335,335,552,1002,,621,513,560,600,618,130,632,728,900,900,909,909,909,909,909,650,812,812,812,650,812,812,812,812,,213,,1200,,,,1700,812,1200,812,812,400,,,
hlc_zwlw,1202,zawalow,rus,rs,Rus,rus_halicz,hlc,500,305,"",25.0193957216299,49.2075068941877,,,,,188,491,310,460,400,400,300,416,416,350,300,250,250,250,250,250,200,388,344,344,275,344,344,344,250,250,250,,400,494,350,450,,344,400,344,344,63,,500,
hlc_dntyn,1202,dniatyn,rus,rs,Rus,rus_halicz,hlc,2900,307,dniatyn,24.6166666666667,48.5333333333333,,,,,,,,,,,,,,,,,,,,,,,,,,,,,,,,,600,,,2320,,,1950,,,,,2900,
hlc_lysc,1202,lysiec,rus,rs,Rus,rus_halicz,hlc,68,308,"",24.6166666666667,48.8666666666667,68,68,,,,,,,,,,,,,,,,,,,,,,,,,,,,,,,,,,,,,,,,,,,
hlc_grzymlw,1202,grzymalow,rus,rs,Rus,rus_halicz,hlc,500,309,"",26.0238553058215,49.3344461680464,,,,,218,282,,252,,310,310,320,250,400,400,404,420,420,420,500,550,774,,,550,,,,,800,,,800,750,750,,500,687,,687,,125,,500,
hlc_mrympl,1202,maryampol,rus,rs,Rus,rus_halicz,hlc,650,274,"",24.85,49.0333333333333,,,,,,,,,,,,,,,,,,,,,,,,,,,,,,,,,650,,,,,,650,,,,,,
lww_blykmn,1203,bialykamien,rus,rs,Rus,rus_lwow,lww,200,311,"",24.8333333333333,49.9,,,198,150,150,80,80,,,56,,,,,,,,,,,,,,,,150,,200,,100,,,,,,,,,,150,,200,,,
lww_blykmn_bbrk,1203,bialykamien_bobrka,rus,rs,Rus,rus_lwow,lww,0,312,"",24.83333333,49.9,,,,,,,,,,,,,,520,650,370,455,455,500,500,390,246,,,450,,,,,,,,,,,,,,,,,,,,
lww_brdy,1203,brody,rus,rs,Rus,rus_lwow,lww,10897,313,"",25.1398384784093,50.0903413847266,,,400,735,1650,850,1930,685,1332,390,,,,,,,,,,,,,,,,,,,,,,,,,,,,,,,,,,10897,
lww_brzzny,1203,brzezany,rus,rs,Rus,rus_lwow,lww,2000,314,"",24.9450128766262,49.449226082865,816,816,,830,786,1101,579,,500,533,1200,1200,1230,1700,1500,1515,850,660,600,1240,541,1457,,,730,387,,,231,,,,2210,1700,1500,1700,2000,877,2210,1787,130,425,,2125,
lww_brzzdwc,1203,brzozdowce,rus,rs,Rus,rus_lwow,lww,150,315,"",24.1669562823142,49.4616991272277,,,,,,,,,,,150,,,,,,,,,,,,,,,,,,,,,,,,,,,,,,,,,,
lww_chdrw,1203,chodorow,rus,rs,Rus,rus_lwow,lww,1600,316,"",24.3202226483031,49.4122258216027,750,750,900,822,236,840,436,596,,,1100,1236,1442,1450,1450,1464,1500,1500,1500,1500,1550,1787,1937,1860,1650,1825,1878,1933,2071,2071,1579,1800,1800,1908,1908,2210,1600,1922,1800,1937,1937,1800,,,
lww_blchw,1203,bolechow,rus,rs,Rus,rus_lwow,lww,300,317,"",23.8585697958239,49.0535679630246,1642,1642,1140,805,1181,2022,410,160,170,1925,1600,1352,1352,1250,650,1313,1313,,1313,1313,1513,1850,,468,1513,,1890,1890,,1980,1000,,2680,2000,2100,,300,324,2680,,,498,,,
lww_dln,1203,dolina,rus,rs,Rus,rus_lwow,lww,1000,318,"",24.0103630237654,48.962179218136,344,344,798,402,190,760,,,800,822,300,924,624,800,800,808,808,808,700,808,450,1080,900,870,450,900,900,900,431,437,1053,,2080,,,,1000,900,2080,900,900,2000,,1300,
lww_glnny,1203,gliniany,rus,rs,Rus,rus_lwow,lww,600,320,"",24.5286051465668,49.8169650992427,,,150,309,393,274,385,420,250,,400,350,,214,242,400,,,400,400,440,550,,,,,300,450,650,650,90,,700,,500,600,,,700,,,,,,
lww_glgry,1203,gologory,rus,rs,Rus,rus_lwow,lww,1100,321,"",24.7041813367782,49.7460936085389,,,,,400,400,,,162,550,,550,,,,,,,,,,,,,,,,,,,,,,,750,900,1100,500,,,,,,1200,
lww_grdk,1203,grodek,rus,rs,Rus,rus_lwow,lww,1500,322,"",23.6444444444444,49.7833333333333,430,430,150,327,118,104,,528,770,,80,78,,1100,,,924,,,,,,,1050,,418,,,320,,1000,,1500,,,,1500,375,1700,,,313,,2000,
lww_jnw,1203,janow,rus,rs,Rus,rus_lwow,lww,550,323,Ivano-Frankove,23.733333333333,49.916666666667,154,146,,100,100,150,155,162,50,154,160,168,168,200,200,202,303,180,180,180,200,260,200,,200,200,200,,100,300,300,,600,,,,550,195,,200,200,,,,
lww_jryczw,1203,jaryczow,rus,rs,Rus,rus_lwow,lww,1360,324,"",24.3,49.9,516,516,,639,774,904,832,,900,,,400,400,650,775,,,,,,,,780,,75,,,,,1200,,,,,,1360,,1250,,1250,,325,,,
lww_jwrw,1203,jaworow,rus,rs,Rus,rus_lwow,lww,2760,325,"",23.3664773909695,49.9335770643359,150,612,2199,195,1672,1500,618,2200,2000,1014,2200,1488,2250,2150,2950,1970,1970,1970,1950,1690,1300,400,1100,1100,1670,1100,1100,1100,1210,1210,1212,1562,,1060,,2760,,1100,1500,1100,1100,1563,,,
lww_kmnk,1203,kamionka,rus,rs,Rus,rus_lwow,lww,625,326,"",,,,,,,,,,,,,,,,,,,600,,400,,350,500,,,,,,,500,500,500,,,,,,,600,,184,600,625,,,
lww_knchyncz,1203,knichynicze,rus,rs,Rus,rus_lwow,lww,500,327,Knyahynychi,24.4667,49.3833,215,215,,249,618,404,482,542,575,,600,,,,,,,,,,,,,,,,,,,,,,,,,,500,,,,,,,,
lww_kmrn,1203,komarno,rus,rs,Rus,rus_lwow,lww,1350,328,"",23.6875534425943,49.6304099838989,1900,1900,1500,468,288,528,400,1000,1150,927,850,1104,1104,1090,1100,1313,1293,934.5,1313,1000,900,1125,824,936,745,1175,988,941,1400,1200,,2062,,1572,,1350,,1220,,1175,1175,1606,,,
lww_kzw,1203,kozowa,rus,rs,Rus,rus_lwow,lww,345,329,"",25.1388008640343,49.4321064906891,,,,,,,,,,,100,100,,,110,111,111,100,100,100,250,150,125,125,100,125,125,125,125,,,,325,345,345,,,125,325,125,125,82,,,
lww_klkw,1203,kulikow,rus,rs,Rus,rus_lwow,lww,730,331,"",24.0729247177645,49.9694255297011,200,200,300,432,,150,,,,350,400,400,435,,400,425,,,520,,,400,,500,,,,,,,,,,730,,,,1175,,500,500,,,,
lww_lww,1203,lwow,rus,rs,Rus,rus_lwow,lww,1500,332,"",24.0349130375792,49.8406207795665,1480,1480,2520,793,,723,4080,4000,3132,3249,4534,5013,4180,3700,4416,3000,2200,,2300,1350,530,2444,950,1072,1880,802,1579,2460,2721,,782,,1800,,1000,,1500,1530,,,824,1912,,,
lww_mkljw,1203,mikolajow,rus,rs,Rus,rus_lwow,lww,100,333,"",23.9833333333333,49.5333333333333,,,,,,,,,,,,,,,,,,,,,,,125,,,,110,125,,,,,,,100,,,,,108,120,,,,
lww_nwry,1203,nawarya,rus,rs,Rus,rus_lwow,lww,200,334,"",23.9333333333333,49.75,,,,,,,,,,,,,,,,,,,,100,,80,,250,,,,,150,204,200,,,,,,,100,,77,100,187,,200,
lww_lsk,1203,olesko,rus,rs,Rus,rus_lwow,lww,500,335,"",24.8748591681089,49.9649872990441,,,300,249,150,300,250,,1000,300,,200,,400,,,,,,,400,,,,400,500,,,380,500,,,,,,,500,,500,700,,,,500,
lww_pdkmn,1203,podkamien,rus,rs,Rus,rus_lwow,lww,1000,336,"",25.3189246883268,49.9428889324104,,,,,200,400,,,,,,850,,,,,,,,570,,,,,,,,700,775,,,,,,,375,,,,,,,,1000,
lww_pdwysk,1203,podwysokie,rus,rs,Rus,rus_lwow,lww,832,337,"",24.8,49.4,,,,,,100,,,,,,,,,,,,,,,,,,,,,,,,,,,,,,,,,,832,,,,,
lww_pmrzny,1203,pomorzany,rus,rs,Rus,rus_lwow,lww,1125,338,"",24.9475137266137,49.6274577587889,,,,150,,318,,420,100,,100,,,,,,131,,,,547,432,757,,666,757,757,757,800,,,,,,,,,832,850,,657,187,,1125,
lww_przmyslny,1203,przemysliany,rus,rs,Rus,rus_lwow,lww,1000,339,"",24.55,49.6666666666667,,,,225,,,261,,300,,,,,,,,,,,,,,,,,,,,,,,,,,,,,,,1000,,,,,
lww_rzdl,1203,rozdol,rus,rs,Rus,rus_lwow,lww,900,340,"",24.0576334202946,49.4640261877296,344,344,,699,718,957,900,900,1000,669,1000,1040,840,1050,1050,1010,1060,1060,1000,900,800,1000,1000,964,990,1000,1000,900,1045,1045,953,1000,1000,1060,1060,1260,900,1000,,416,850,1000,,,
lww_rzntw,1203,rozniatow,rus,rs,Rus,rus_lwow,lww,500,341,"",24.1517750789478,48.9369373621803,266,266,348,249,268,282,260,280,200,258,260,268,268,300,300,303,303,303,303,303,333,400,280,250,333,316,250,250,300,150,,312,600,,,244,500,426,600,,192,63,,,
lww_ssw,1203,sasow,rus,rs,Rus,rus_lwow,lww,125,342,"",24.9372180200243,49.8731741874722,,,,99,,,160,,,160,,,,,,,,,,125,,,,,,,,,,,,,,,,,,,,,,,,,
lww_sklw,1203,sokolow,rus,rs,Rus,rus_lwow,lww,300,343,"",,,215,215,99,225,,,,,,,,,,250,,303,,,,,,400,,,,,,,,,,,,,,,,400,,60,300,,,,
lww_sklwk,1203,sokolowka,rus,rs,Rus,rus_lwow,lww,150,344,"",,,,,,50,50,50,60,,,50,,50,,,,,,,,,,,,,,,,100,,,,,100,,,,150,,,40,,150,,,
lww_stnslwczyk,1203,stanislawczyk,rus,rs,Rus,rus_lwow,lww,150,345,"",24.9204940009383,50.1631001278898,,,,50,50,60,60,,,50,,,,,,,,,100,,,,,,,,,,,,,,170,,,,150,,,,,200,,300,
lww_strzlsk,1203,strzeliska,rus,rs,Rus,rus_lwow,lww,1350,346,"",24.402848127743,49.5139818294366,430,430,577,501,216,110,,160,580,,650,650,600,,,,727,,,1202,,1100,1100,,,400,432,100,,1320,,,,,,,,1100,1300,,,650,,1350,
lww_swrz,1203,swierz,rus,rs,Rus,rus_lwow,lww,1000,347,"",24.4333333333333,49.65,750,750,657,753,646,497,945,840,920,1131,933,919,770,950,900,859,473,799,909,1000,1000,1200,,125,900,,740,750,,,,,,950,,,1000,1100,,500,805,225,,1250,
lww_szczrzc,1203,szczerzec,rus,rs,Rus,rus_lwow,lww,450,348,"",23.848034317391,49.6500652172344,,,,,418,,,280,450,464,464,400,250,450,350,455,455,400,455,455,181,550,,,,400,450,,,,,,,,380,450,,550,,,,83,,,
lww_wnnk,1203,winniki,rus,rs,Rus,rus_lwow,lww,904,349,"",24.1166666666667,49.8166666666667,,,,,,,,,,55,100,,,,,,,,,,,,,,,,,,,,,,,,,,,,,904,,,,,
lww_zbrw,1203,zborow,rus,rs,Rus,rus_lwow,lww,1300,350,"",25.1334467062661,49.6625951976747,,,354,576,218,290,906,750,,1185,,,,,,,,,296,55,,,,,,354,,,184,,,,780,,830,1050,,904,780,1500,,150,,1300,
lww_zlczw,1203,zloczow,rus,rs,Rus,rus_lwow,lww,325,351,"",24.8879062245419,49.8139626973594,,,,1899,1050,1710,2140,2100,520,1000,,1000,,380,,,,,121,1010,698,1500,750,119,310,750,750,992,1174,,,,,,,,,345,,400,278,325,,,
lww_bbrk,1203,bobrka,rus,rs,Rus,rus_lwow,lww,1150,353,"",24.30853036385,49.6415047417087,475,473,444,549,,452,,,695,,700,516,364,,,,,,,,,,450,334,,,450,,800,800,,,,,,,1150,,1120,,160,150,,1350,
lww_ttls,1203,totals,rus,rs,Rus,rus_lwow,lww,46149,,"",,,12243,12704,13934,15105,14302,17573,18037,18092,19521,17764,20535,23538,19400,21419,20129,18459,18522,9869.5,17060,17532,14678,20968,13997,10835,14339,13524,14977,17321,22150,20659,11809,6836,17245,12286,11863,14259,14400,21181,19045,16051,14332,16205,,27902,
lww_zrw,1203,zurow,rus,rs,Rus,rus_lwow,lww,125,355,"",24.4706309005344,49.3025281923083,107,107,,159,,,,220,200,,300,200,225,250,200,303,200,100,150,150,165,212,156,,165,,206,170,165,100,100,,60,70,,,,180,60,,206,,,125,
lww_zydczw,1203,zydaczow,rus,rs,Rus,rus_lwow,lww,880,356,"",24.1555238263846,49.3755978904523,559,559,900,627,818,657,950,800,880,907,1000,1040,1040,1000,1000,750,750,600,650,,,,812,812,,750,812,812,812,900,,,840,891,840,,,,840,,1055,155,,880,
lww_zlkw,1203,zolkiew,rus,rs,Rus,rus_lwow,lww,460,357,"",23.9864315780325,50.0677191063534,320,329,,588,626,400,548,674,645,1299,1150,1830,1646,1315,836,1585,2096,,1300,1581,2140,1845,1751,,1112,1215,,1666,4647,4647,3040,,,,460,,,2151,,,2118,,,,
lww_zrwn,1203,zurawno,rus,rs,Rus,rus_lwow,lww,1000,358,"",24.2855680158447,49.2536599226656,180,180,,201,318,200,210,375,240,206,204,212,212,250,250,,,,,,,,,,,,,,,,,100,,,,,,,,206,,125,,1000,
prz_brcz,1300,biercza,samborszczyzna,smbrszczyzn,Samborszczyzna,samborszczyzna,prz,0,359,"",22.4833333333333,49.7,,,,120,,,,,,,,,,,,,,200,,,160,,,,,,,,,,,,,,,,,,,,,,,,
prz_frdrpl,1300,fredropol,samborszczyzna,smbrszczyzn,Samborszczyzna,samborszczyzna,prz,0,360,"",22.75,49.7,,,,,,,,,,,,,,,,,,40,,,,,,,,,,,,,,,,,,,,,,,,,,,
prz_krknc,1300,krukienice,samborszczyzna,smbrszczyzn,Samborszczyzna,samborszczyzna,prz,0,361,"",23.1666666666667,49.6833333333333,,,,,,,,,,,,,,,,,,40,,,,,,,,,,,,,,,,,,,,,,,,,,,
prz_rybtycz,1300,rybotycze,samborszczyzna,smbrszczyzn,Samborszczyzna,samborszczyzna,prz,0,362,"",22.6440835588608,49.6555547118457,,,,399,,,,,,,,,,,,,,350,,,300,,,,,,,,,,,,,,,,,,,,,,,,
prz_smbr,1300,sambor,samborszczyzna,smbrszczyzn,Samborszczyzna,samborszczyzna,prz,0,363,"",23.1916205576575,49.5119098625276,,,,,,,,,,,,,,,,,,,,,650,,,,,,,,,,,,,,,,,,,,,,,,
prz_stnslww,1300,stanislawow,samborszczyzna,smbrszczyzn,Samborszczyzna,samborszczyzna,prz,0,364,"",24.7029830495295,48.9125403005606,,,,,,,,,,,,,,,,,,40,,,,,,,,,,,,,,,,,,,,,,,,,,,
prz_strsl,1300,starosol,samborszczyzna,smbrszczyzn,Samborszczyzna,samborszczyzna,prz,0,365,"",22.9666666666667,49.4833333333333,,,,,,,,,,,,,,,,,,350,100,,150,,,,,,,,,,,,,,,,,,,,,,,,
prz_stry_smbr,1300,stary_sambor,samborszczyzna,smbrszczyzn,Samborszczyzna,samborszczyzna,prz,0,366,"",23.0087818959958,49.4320362635312,,,,,,,,,,,,,,,,,,200,,,200,,,,,,,,,,,,,,,,,,,,,,,,
prz_szkw,1300,uszkow,samborszczyzna,smbrszczyzn,Samborszczyzna,samborszczyzna,prz,350,367,"",87.3166666666667,54.1,,,,,,,,,,,,,,,,,,,,,350,,,,,,,,,,,,,,,,,,,,,,,,
prz_ttls,1300,totals,samborszczyzna,smbrszczyzn,Samborszczyzna,samborszczyzna,prz,1076,,"",,,,,,2000,,,,,,,,,,,,,,3490,1261,,2010,,,,,,,,,,,,,,,,,,,,,,,,
prz_lszk,1300,laszki,samborszczyzna,smbrszczyzn,Samborszczyzna,samborszczyzna,prz,826,368,"",22.9,50.0166666666667,,,,,,,,,,,,,,,,,,750,826,,,,,,,,,,,,,,,,,,,,,,,,,,
prz_nwmst_bybl,1300,nowomiasto_bybel,samborszczyzna,smbrszczyzn,Samborszczyzna,samborszczyzna,prz,0,369,Nove Misto,22.8667,49.6167,,,,,,,,,,,,,,,,,,250,,,200,,,,,,,,,,,,,,,,,,,,,,,,
wol_dbn,1401,dubno,dubno,dbn,Wolyn,dubno,wol,972,370,"",25.7172811969365,50.4240122390242,1296,1296,,1296,472,444,,999,1720,1425,2598,1000,1445,,,,,,,,,,,6240,,,,,,,,,2713,,,,,,,,,7000,,,
wol_kmn_krzck,1401,kamien_korzecki,kamien_korzecki,kmnkrzck,Wolyn,dubno,wol,870,371,Kamen Kashirskiy,24.9667,51.6333,423,423,450,423,549,549,617,513,600,,,500,500,380,380,400,400,400,400,400,400,,,400,400,80,300,300,630,680,635,810,400,560,600,663,870,300,,300,270,,,735,
wol_kwl,1401,kowel,kowel,kwl,Wolyn,dubno,wol,1600,372,"",24.7115008603188,51.2075745997114,624,625,300,624,657,345,927,654,1000,1446,1416,,,,,,,,,,,,,840,1545,3168,,,1065,1216,1445,3600,,,,,,,1600,,2950,1217,,,
wol_mchnwk,1401,michnowka,kamien_korzecki,kmnkrzck,Wolyn,dubno,wol,50,373,"",26.45,49.8166666666667,,,,,,,,,,,,,,,,,,,,30,,,,180,30,,,,,,,90,50,,,,,,,,,,,,
wol_mdzyrzcz_krck,1401,miedzyrzecz_korecki,miedzyrzecz_korecki,mdzyrzczkrck,Wolyn,dubno,wol,0,374,"",26.86666667,50.65,,,,,,,,,,,,,,,,,,,,,1800,3600,,,,,,,,,,,,,,,,,,,,,,,
wol_mlnwc,1401,milianowiec,kamien_korzecki,kmnkrzck,Wolyn,dubno,wol,130,375,Mylianovychi,24.45,51.1833,,,,,,,,,,,,,,,,,,,,,,,,130,,,,,130,,,,,,,,,,,,,,,,
wol_nschjz,1401,niesuchojeze,kowel,kwl,Wolyn,dubno,wol,700,376,"",24.836420470039,51.3791323582925,798,799,750,808,1098,,,,,200,,,,,,,,,,1100,900,,900,800,,,350,800,800,1000,,1040,1040,990,1100,1197,700,600,,500,600,,,1250,
wol_lyk,1401,olyka,olyka,lyk,Wolyn,dubno,wol,1000,377,"",25.8127837717377,50.7065041092544,,,,,,,,,,,,,,,1998,,,,,,,,,,,,,,,,,,,4074,1000,1000,,,,,,,,,
wol_wyzw,1401,wyzwa,kowel,kwl,Wolyn,dubno,wol,818,378,"",24.4333333333333,51.4333333333333,324,324,520,324,,,348,312,300,228,,300,320,320,320,320,330,320,320,330,320,,,500,180,450,450,500,520,570,600,810,700,,,,,277,,350,340,570,,,
wol_wrkwcz,1401,warkowicze,dubno,dbn,Wolyn,dubno,wol,360,379,"",25.9936694422982,50.468743476246,,,,,,,,,,,,,,,,,,,,,,,,360,,,,,,,,,,,,,,400,,400,,,,,
wol_ttl,1401,total,dubno_kowel_olyka_MiedKorecki,dbnkwllykMdKrck,Wolyn,dubno,wol,4303,,"",,,2500,2495,2540,2179,2308,896,1847,1482,1900,2277,2254,2800,820,700,700,720,730,720,720,1850,1650,,900,3474,2255,3508,1775,2234,4246,4558,3555,6686,2304,1550,1700,1860,1570,1170,1852,1150,4170,1787,,2120,
wol_bzl,1402,bazalia,krzemieniec,krzmnc,Wolyn,krzemieniec,wol,394,380,"",26.4805463729352,49.7113979121374,84,84,150,150,,,,,189,,,,,,,,,340,380,,,,440,,,340,,,,,,,320,360,450,260,394,,,340,340,,,,240
wol_jmpl,1402,jampol,krzemieniec,krzmnc,Wolyn,krzemieniec,wol,1018,381,"",26.2363451004231,49.951793850072,279,279,477,300,,,,,,,,,,,,,,,,,,,,,,,,,,,,,600,,,,1018,,,,,,,,476
wol_krnc,1402,kornica,krzemieniec,krzmnc,Wolyn,krzemieniec,wol,130,382,"",26.5333333333333,50.05,31,31,144,99,,,129,,,,,,,,,,,90,170,140,140,200,200,,150,264,,,,100,100,,,,150,130,130,200,,195,200,,,,49
wol_kzn,1402,kozin,krzemieniec,krzmnc,Wolyn,krzemieniec,wol,185,383,"",25.453542299028,50.2628185894661,56,56,,108,,,129,,150,,,,,200,,282,,80,150,150,,100,,,300,,,,180,128,,,50,,227,,185,,,,,,,,332
wol_krzmnc,1402,krzemieniec,krzemieniec,krzmnc,Wolyn,krzemieniec,wol,680,384,"",25.727400675079,50.0959831627669,339,339,300,450,,,222,,164,200,498,,,214,500,500,420,400,300,,781,,800,,900,,1331,1200,2200,1621,1185,680,,,,,,700,,700,725,1200,,,1029
wol_lchwc,1402,lachowce,krzemieniec,krzmnc,Wolyn,krzemieniec,wol,1694,385,"",26.4022078177175,49.9927387149213,558,558,951,956,,,,,999,1200,1200,1200,900,763,,,,720,,,,1200,,,,2000,,,,,,2000,,2490,1700,,1694,,1600,,,,,1896,589
wol_lnwc,1402,lanowce,krzemieniec,krzmnc,Wolyn,krzemieniec,wol,150,386,"",26.0737278348844,49.8538397548952,,,,,,,,,60,30,,30,30,,,,,,,80,,,,,,,,,,,,,120,,157,150,,,,,,,,,85
wol_lksync,1402,oleksyniec,krzemieniec,krzmnc,Wolyn,krzemieniec,wol,462,387,"",25.55,49.8333333333333,138,138,300,189,,,264,,245,,200,,,,,,,,,,,,,,,,,,,500,,,400,190,210,210,462,,450,,,,,,203
wol_lszyc,1402,oleszyce,krzemieniec,krzmnc,Wolyn,krzemieniec,wol,62,388,"",,,,,,62,,,,,,,,,,,,,,,,,,,,,,,,,,,,,,,,,,,,,,,,,
wol_zchwc,1402,ozochowce,krzemieniec,krzmnc,Wolyn,krzemieniec,wol,448,389,"",,,102,,240,,,,,,,,,,,187,,,,370,400,,,,,,,,,,,140,,,87,,,,448,,450,,,,,,317
wol_ptycz,1402,ptycze,krzemieniec,krzmnc,Wolyn,krzemieniec,wol,87,390,"",,,70,70,44,70,,,,,129,100,129,100,100,70,100,56,53,50,56,,,80,85,,,140,,70,70,70,,,70,,87,,,85,,,85,,,,112
wol_prntyn,1402,perniatyn,krzemieniec,krzmnc,Wolyn,krzemieniec,wol,80,391,"",,,,,,,,,60,,60,,,60,60,,,,,,,,,100,,60,,60,60,60,60,85,,60,60,60,60,80,,60,60,,,,,,
wol_rdzwlw,1402,radziwilow,krzemieniec,krzmnc,Wolyn,krzemieniec,wol,539,392,"",25.25,50.1333333333333,99,100,228,219,,,,,,,,,,,,,,130,,,,,,,,,,,,,,,,520,,,539,,,,,,,,298
wol_rchmnw,1402,rochmanow,krzemieniec,krzmnc,Wolyn,krzemieniec,wol,60,393,"",26.0833333333333,50.1333333333333,168,168,264,285,,,,,113,,,,,,,,,250,,,,,,,,,,,,,,,430,60,,,,,,340,,,,,170
wol_szmsk,1402,szumsk,krzemieniec,krzmnc,Wolyn,krzemieniec,wol,0,394,"",26.1264422341505,50.1243188079118,31,31,75,75,,,,,,,,,,,,,,80,,,100,161,147,,120,210,40,,,,,,60,,,,,140,,,147,,,,
wol_tfpl,1402,tofipol,krzemieniec,krzmnc,Wolyn,krzemieniec,wol,748,395,"",26.4166666666667,49.8333333333333,,,,108,,,138,,,,,,,,,,,560,,,,,,,,900,,,,,,,280,845,,,748,,,,,,,,516
wol_tstchw,1402,testuchow,krzemieniec,krzmnc,Wolyn,krzemieniec,wol,30,396,"",,,,,951,,,,,,,,,,30,,,,,,,,,,,,,,,,,,,,,,,,,,,,,,,,
wol_wrb,1402,werba,krzemieniec,krzmnc,Wolyn,krzemieniec,wol,175,397,"",25.6072318724741,50.2745051290501,,,480,,,,,,,,,,50,,,56,53,50,56,,,,90,,56,150,,,120,120,,,120,,157,,175,,,,90,,,,181
wol_wsnwc,1402,wisniowiec,krzemieniec,krzmnc,Wolyn,krzemieniec,wol,870,398,"",25.75,49.9,558,558,,,,,,,,,849,,850,863,865,710,,815,806,810,806,1000,,,810,,,,,,,,550,870,,,,,1300,,,,,,664
wol_wlczysk,1402,woloczysko,krzemieniec,krzmnc,Wolyn,krzemieniec,wol,508,399,"",,,,,,,,,,,100,,,,,397,390,,,70,180,,,,,,,,,,,,,,50,429,577,269,508,550,,,,,,,774
wol_wyzgrdk,1402,wyzgrodek,krzemieniec,krzmnc,Wolyn,krzemieniec,wol,622,400,"",25.9722719308116,49.7760388944262,210,210,,408,,,,,,80,,,,,,500,,460,350,,,420,,,,1000,,600,,,,,80,,600,740,622,500,,,,,,,668
wol_zbkryk,1402,zabikryk,krzemieniec,krzmnc,Wolyn,krzemieniec,wol,30,401,"",,,,,,,,,,,,,,,30,,,,,,,,,,,,,,,,,,,,,,,,,,,,,,,,
wol_zbrz,1402,zbaraz,krzemieniec,krzmnc,Wolyn,krzemieniec,wol,946,402,"",25.7792442275492,49.6762540754747,,,,,,,,,600,,,,,,,,,,1200,,,1000,,,,,,,,,,,160,600,1000,946,,,,,,,,,910
pod_czrnstrw,1402,czarnoostrow,krzemieniec,krzmnc,Wolyn,krzemieniec,pod,180,403,"",26.76086653245,49.5060832846021,,,,,,,150,,80,150,150,150,150,161,160,212,,390,220,150,,300,238,310,212,338,300,300,310,310,310,260,260,,160,160,180,90,277,238,238,260,,166,226
wol_ttls,1402,totals,krzemieniec,krzmnc,Wolyn,krzemieniec,wol,10889,,"",,,2723,2622,4604,3519,,,1097,,2982,1760,3030,1540,2380,2855,2015,2316,526,4855,4268,1330,2039,4561,2000,816,2004,6303,2887,2837,3190,4084,1845,3412,4068,7434,6542,3619,7393,2385,4257,2033,1925,1460,,2596,8492
wol_zmsk,1402,izumsk,krzemieniec,krzmnc,Wolyn,krzemieniec,wol,0,404,"",,,,,,,,,,,,,,,,,,,,,,,,,,,,,,,,,,,,,,,,,,140,,,,,
wol_hrynk,1402,horynka,krzemieniec,krzmnc,Wolyn,krzemieniec,wol,200,406,"",25.7837510306115,49.9860074810875,,,,,,,,,,,,,,,,,,,,,,,,,,,,,,,,,,50,50,171,200,,,,,,,174,203
wol_klcz,1402,klucz,krzemieniec,krzmnc,Wolyn,krzemieniec,wol,200,407,"",,,,,,,,,,,,,,,,,,,,,,,,,,,,,,,,,,,,200,,200,,,,,,,,,222
wol_krpc,1402,krupiec,krzemieniec,krzmnc,Wolyn,krzemieniec,wol,91,408,"",25.3131345401382,50.1572367497069,,,,,,,,,,,,,,,,,,,,,,,,,,111,,,,,,,,71,95,95,91,,55,,,,,,114
wol_brwc,1403,borowce,luck,lck,Wolyn,luck,wol,31,409,"",,,,,,,,,,,,,,,,,,,,,30,30,,35,30,30,30,30,30,30,36,30,30,60,30,31,31,31,,,30,30,30,,,31,
wol_czrtrysk,1403,czartorysk,luck,lck,Wolyn,luck,wol,100,410,"",25.8732231628744,51.2244816245351,,,,78,60,99,48,60,120,90,,60,60,70,60,60,60,60,80,80,70,,,70,70,70,70,70,77,70,,70,70,126,,90,100,,70,70,70,70,,90,73
wol_cztwrtn,1403,czetwertnie,luck,lck,Wolyn,luck,wol,32,411,"",48.0166666666667,58.75,,,,,,,,,,,,,,,,,,,30,30,,30,30,30,30,30,30,30,36,30,30,60,30,31,31,31,,30,30,30,30,,,32,
wol_drwcz,1403,derewicz,luck,lck,Wolyn,luck,wol,0,412,"",27.5833333333333,49.9666666666667,,,,,,,,,,,,,,,,,,,,,,,,,,,,,,,,,,,,,,30,,,,,,,
wol_grdk,1403,grodek,luck,lck,Wolyn,luck,wol,50,413,"",26.1833333333333,50.6833333333333,,,,,,75,75,75,150,80,,75,75,60,60,80,80,40,40,40,,,40,40,35,40,40,40,45,,,,,50,50,50,,,40,40,40,,,50,
wol_jnwk,1403,janowka,luck,lck,Wolyn,luck,wol,44,414,"",25.2590281513494,51.0923894629769,,,,,,,,69,50,30,,25,25,25,30,30,30,40,,35,,35,35,30,35,35,35,35,42,35,35,70,,44,44,44,44,35,35,35,35,,,44,52
wol_kszwk,1403,kaszowka,luck,lck,Wolyn,luck,wol,400,415,"",25.3227070847967,51.1609212424157,,,,240,198,198,249,279,,279,,300,300,300,300,320,320,300,,310,310,310,310,310,310,310,300,310,324,310,310,310,,393,393,393,400,330,390,310,310,310,,393,162
wol_klkw,1403,kilikiew,luck,lck,Wolyn,luck,wol,0,416,"",27.05,50.5333333333333,,,,,,,,,,,,,,,,,,,,,,,,,,,,,,,,,,,,,,,,,,,,,16
wol_klwn,1403,klewan,luck,lck,Wolyn,luck,wol,500,417,"",25.9778577575319,50.7383398545835,,,,,600,498,600,600,399,600,,400,400,,,,,,,600,,,,,,,,,,,,,,450,450,450,500,,,,,,,500,972
wol_klk,1403,kolki,luck,lck,Wolyn,luck,wol,400,418,"",25.6771076572093,51.0980518912497,,,,243,,240,249,249,300,240,,250,166,260,250,250,250,245,280,,300,,,250,,,300,300,191,300,,300,,300,,300,400,,390,300,300,300,,350,271
wol_krsnstw,1403,krasnostaw,luck,lck,Wolyn,luck,wol,250,419,"",27.18333333,50.4,,,,,,,,,,,,,,,,,,,,,,,,,,,,,,,,,,,,,,,250,,,,,,82
wol_lsznwk,1403,leszniowek,luck,lck,Wolyn,luck,wol,127,420,"",25.08333333,50.23333333,,,,98,180,,,,120,90,,90,90,80,90,90,90,,90,90,90,100,95,95,90,95,95,95,102,95,95,95,,120,127,127,127,90,120,95,95,95,,127,26
wol_mrwc,1403,morawica,luck,lck,Wolyn,luck,wol,400,421,"",25.5833333333333,50.5166666666667,,,,813,600,,,,,549,,200,200,,200,,200,,,,,,,,,,300,,,,300,,350,,,300,400,,800,300,200,,,350,249
wol_knsk,1403,okonsk,luck,lck,Wolyn,luck,wol,20,422,"",25.55,51.25,,,,,,,,,80,50,,,,,,,,,25,25,,40,20,,20,,,,,,,,,,,,,20,,20,20,,,,
wol_strzc,1403,ostrozec,luck,lck,Wolyn,luck,wol,250,423,"",25.550309808035,50.6629818243413,,,,,,,,,395,,,,,,,,,,,,,,,300,280,300,300,300,300,300,,300,300,215,215,215,250,,390,,,300,,250,130
wol_rflwk,1403,rafalowka,luck,lck,Wolyn,luck,wol,150,424,"",25.8666666666667,51.3666666666667,,,,,,,,,,,,,120,,100,100,105,120,,120,120,,,150,120,150,150,150,158,150,,150,150,150,,150,150,150,180,150,,150,,150,109
wol_trgwc,1403,targowica,luck,lck,Wolyn,luck,wol,360,425,"",25.4029449083155,50.5561910313742,,,,813,,,,498,,,,,515,550,365,888,550,515,580,850,344,880,185,360,,360,194,342,360,360,,360,,360,360,,360,1150,360,380,380,360,,,410
wol_ttls,1403,totals,luck,lck,Wolyn,luck,wol,5834,,"",,,,,2595,4693,3069,3041,3203,3757,3491,4230,,4244,4406,3035,4479,3995,5092,4072,4150,5136,4290,6141,1887,4040,4546,6331,6931,4085,3920,4318,3232,5453,1054,5167,4951,2675,5881,5534,8140,3081,2580,3350,,5876,4687
wol_trjnwk,1403,trojanowka,luck,lck,Wolyn,luck,wol,264,426,"",25.2833333333333,51.3333333333333,,,,120,120,150,138,,,150,,150,150,140,125,130,120,110,130,130,130,130,130,130,130,130,130,130,140,130,130,130,,164,164,164,164,130,160,130,130,130,,164,80
wol_wsnk,1403,wisienki,luck,lck,Wolyn,luck,wol,36,427,"",25.35,50.9833333333333,,,,,,,,40,40,40,,40,40,30,25,35,35,40,30,38,,35,38,,38,36,36,36,,36,36,,,44,36,36,,38,,38,38,,,36,
wol_lck,1403,luck,luck,lck,Wolyn,luck,wol,1924,428,"",25.3407845331747,50.7582696158609,,,240,2378,1248,1476,1536,1581,1469,1728,,2374,2005,1340,2694,2072,3072,2602,2635,2780,2554,4546,776,1830,3180,3045,4545,2007,2109,2262,2056,3338,124,2444,2799,44,1924,4417,4635,975,724,1425,,3057,1845
wol_mlnc,1403,mielnica,luck,lck,Wolyn,luck,wol,250,429,"",25.0897171033436,51.1474013674258,,,,219,180,180,180,180,200,180,,180,180,180,180,180,180,,200,180,180,220,200,210,180,200,220,210,,210,210,210,,240,247,247,250,200,260,200,200,210,,250,226
wol_zrwn,1403,zurawno,luck,lck,Wolyn,luck,wol,80,430,"",,,,,,120,120,,,,150,120,,100,80,,,,,,,,,,,,,,,,,,,,,,,,,,,,,,,,
brc_dznkw,1404,dziunkow,ostrog,strg,Wolyn,ostrog_brac_pod,brc,320,431,"",29.4410383064258,49.4538982937316,,,,,,,,,,,,,,,,,,,,,,,50,,,50,203,203,220,220,250,250,,,240,288,320,50,250,50,50,250,,320,
brc_lpwc,1404,lipowiec,ostrog,strg,Wolyn,ostrog_brac_pod,brc,175,432,"",29.0602498441165,49.2179710240081,,,,,,,,,,,,,,,,,40,,40,40,,,,,40,,,120,120,150,236,236,,146,,175,,,236,,,236,,,
brc_pkw,1404,pikow,ostrog,strg,Wolyn,ostrog_brac_pod,brc,860,433,"",28.2578510603185,49.5694818067427,,,,,99,,99,99,100,100,,,,100,100,200,270,270,270,238,,,,580,270,,,580,580,700,736,736,,646,646,775,,,800,,,736,,860,
brc_strzyzwk,1404,strzyzawka,ostrog,strg,Wolyn,ostrog_brac_pod,brc,130,434,"",28.468315310115,49.3014788264923,,,,,,,,,,,,,,30,40,50,50,,100,50,,115,50,81,50,80,81,81,90,90,94,94,,,,,,50,130,50,50,94,,,
brc_ttyjw,1404,tetyjow,ostrog,strg,Wolyn,ostrog_brac_pod,brc,510,435,"",29.6782184657351,49.3579190818522,,,,,,,,,,36,,,36,36,72,36,40,,50,,,150,75,234,,,162,162,,,,,162,366,,,510,80,350,80,75,,,500,
brc_ttls,1404,totals,ostrog,strg,Wolyn,ostrog_brac_pod,brc,2388,,"",,,,,,,99,,99,119,120,216,40,,36,202,282,322,445,270,505,373,,698,275,1195,420,460,780,1120,1010,1510,1316,1316,680,1865,886,2006,1223,480,2062,480,475,1766,,2073,
pod_lnw,1404,ulanow,ostrog,strg,Wolyn,ostrog_brac_pod,pod,0,436,"",28.13333333,49.7,,,,,,,,20,20,40,,,,,,,,,,,,,,,,,,,,,,,,,,,,,,,,,,,
brc_wnnc,1404,winnica,ostrog,strg,Wolyn,ostrog_brac_pod,brc,0,437,"",28.4453063565441,49.2190502787917,,,,,,,,,,,,,,,,,,,,,,260,,,,200,80,300,,350,,,400,400,,400,,200,,200,200,450,,,
brc_zywtw,1404,zywotow,ostrog,strg,Wolyn,ostrog_brac_pod,brc,393,438,"",29.549986566646,49.2721731294391,,,,,,,,,,40,40,,,36,70,36,45,,45,45,,173,100,300,60,130,254,254,,,,,118,307,,368,393,100,296,,100,,,393,
kij_brdyczw,1405,berdyczow,ostrog,strg,Wolyn,ostrog_kij,kij,1320,439,"",28.58333333,49.9,,,,,99,123,123,135,125,,,,,,220,,450,450,450,,,,950,,,1102,1745,,,1430,,1525,,1320,1320,1320,,,1516,,,1525,,,
kij_blcrkw,1405,bialocerkiew,ostrog,strg,Wolyn,ostrog_kij,kij,1400,440,"",15.2666666666667,45.8666666666667,,,,198,,219,,,,,,,,400,400,450,600,600,800,,,,900,1228,,,1404,1230,,1430,,,900,1408,1408,,,920,1516,920,900,,,1400,
kij_blpl,1405,bialopole,ostrog,strg,Wolyn,ostrog_kij,kij,415,441,"",23.7333333333333,50.9833333333333,,,,,,,,20,20,15,20,,,33,70,35,50,,,50,,,,,110,,70,230,,,305,305,216,333,333,412,415,,,,,305,,454,
kij_blylwk,1405,bilylowka,ostrog,strg,Wolyn,ostrog_kij,kij,0,442,"",29.0166666666667,49.6833333333333,,,,,30,30,48,50,60,,,53,,60,120,80,80,80,80,100,,200,,,120,,,,,,,,,,,,,,,,,,,,
kij_bylwk,1405,biylowka,ostrog,strg,Wolyn,ostrog_kij,kij,408,443,"",29.0166666666667,49.6833333333333,,,,,,,,,,,,,,,,,,,,,,,230,450,,250,438,455,370,340,340,340,170,337,337,404,408,,,,230,340,,444,
kij_bhslw,1405,bohuslaw,ostrog,strg,Wolyn,ostrog_kij,kij,1000,444,"",30.8666666666667,49.55,,,,,99,75,99,120,100,100,100,100,100,100,120,120,145,100,145,80,150,219,,,100,350,698,728,,,,,432,1000,1000,,,,,,,,,,
kij_brdnk,1405,borodianka,ostrog,strg,Wolyn,ostrog_kij,kij,180,445,"",29.9166666666667,50.65,,,,,,,,,,,,,,,80,50,50,,50,50,,150,75,132,50,87,133,132,140,140,140,140,97,150,150,180,,75,195,75,75,140,,,
kij_brwc,1405,borowica,ostrog,strg,Wolyn,ostrog_kij,kij,52,446,"",32.5,49.2333333333333,,,,,,,,,,,,,,20,40,,,,100,20,,,,71,20,,,,70,70,73,73,30,44,44,52,,,,,,73,,,
kij_brszczjwk,1405,borszczejowka,ostrog,strg,Wolyn,ostrog_kij,kij,250,447,"",34.0166666666667,55.7666666666667,,,,,,,,,,,,,,30,60,40,40,,40,40,,68,75,200,40,87,152,152,220,220,,170,121,220,220,264,250,75,200,75,75,170,,292,
kij_brsylw,1405,brusylow,ostrog,strg,Wolyn,ostrog_kij,kij,800,448,"",29.5333333333333,50.2833333333333,,,,,,,,,,,,,,,,60,60,120,120,180,,,380,712,180,522,710,742,730,800,824,300,611,1066,1066,,800,395,600,395,380,824,,,
kij_bystryk,1405,bystryk,ostrog,strg,Wolyn,ostrog_kij,kij,0,450,"",29.15,49.7333333333333,,,,,,,,,,40,40,42,40,40,80,40,50,,50,50,,,,,50,,,,,,,,,,,,,,,,,,,,
kij_byszw,1405,byszow,ostrog,strg,Wolyn,ostrog_kij,kij,280,451,"",,,,,,,,,,,,,,,,,,30,40,,40,40,,69,75,174,40,87,152,152,190,200,212,212,151,249,249,298,280,75,224,75,75,212,,,
kij_chdrkw,1405,chodarkow,ostrog,strg,Wolyn,ostrog_kij,kij,360,453,"",29.3,50.1,,,,,,,,,,,,,,,,,50,,50,50,,115,50,118,50,70,117,119,128,120,128,128,118,264,264,320,360,50,140,50,50,128,,,
kij_cdnw,1405,cudnow,ostrog,strg,Wolyn,ostrog_kij,kij,1246,454,"",28.1166666666667,50.05,534,534,,480,,399,399,,400,100,,350,,350,350,400,450,450,450,,588,,,,,812,,,,,,,,1246,,,,,,,,400,,,
kij_czjkwk,1405,czajkowka,ostrog,strg,Wolyn,ostrog_kij,kij,119,455,"",29.05,50.5333333333333,,,,,,,,,,,,,,36,70,50,20,,100,50,,161,50,,50,58,,119,,,,,,,,,,75,,50,50,,,,
kij_czhryn,1405,czehryn,ostrog,strg,Wolyn,ostrog_kij,kij,440,456,"",32.6666666666667,49.0833333333333,,,,,,,60,60,60,60,,22,,,,50,100,80,100,180,,1012,300,300,80,250,383,305,300,300,300,300,216,440,440,,,440,,440,300,300,,,
kij_czrksy,1405,czerkasy,ostrog,strg,Wolyn,ostrog_kij,kij,530,457,"",32.0666666666667,49.4166666666667,,,,,,,,50,80,60,60,63,60,60,120,100,150,150,150,200,,180,220,230,120,,,,260,330,330,330,237,440,440,,530,230,400,230,220,330,,580,
kij_czrnchw,1405,czerniechow,ostrog,strg,Wolyn,ostrog_kij,kij,216,458,"",25.45,49.6833333333333,,,,,78,48,48,,40,40,50,52,100,50,100,50,50,50,50,50,,150,150,81,50,,81,81,85,,,,54,200,358,240,216,150,,150,150,,,240,
kij_czrwn,1405,czerwone,ostrog,strg,Wolyn,ostrog_kij,kij,193,459,Chervone,28.8667,49.9667,,,,,,,,,,,,,,,,,,,,,,,,101,,,,,130,,,,83,146,306,175,,,160,,,,,193,
kij_dlbysz,1405,dolbysz,ostrog,strg,Wolyn,ostrog_kij,kij,85,460,"",27.9833333333333,50.3666666666667,159,159,,90,48,69,69,69,70,70,70,70,70,40,140,70,,70,70,,,50,,80,50,,,,,,85,85,,,,,,330,85,,,85,,,
kij_fstw,1405,fastow,ostrog,strg,Wolyn,ostrog_kij,kij,610,461,"",29.9166666666667,50.0833333333333,,,,,60,69,78,78,80,80,,,,80,160,60,100,100,105,105,132,200,240,587,105,300,583,612,593,,700,700,400,513,593,,610,,500,,,700,,680,
kij_hrmnwk,1405,hermanowka,ostrog,strg,Wolyn,ostrog_kij,kij,360,462,"",30.55,50,,,,,,,,,,,,,,,,,50,,80,,,,,102,,270,102,102,110,200,212,212,,,,,360,,230,,,212,,400,
kij_hrnstjpl,1405,hornostajpol,ostrog,strg,Wolyn,ostrog_kij,kij,156,463,"",30.25,51.0666666666667,,,,,,,,,,,,,,,,,,,,50,,141,50,132,50,58,106,132,140,130,140,140,105,155,130,156,,50,130,50,50,140,,,
kij_hrdyszcz,1405,horodyszcze,ostrog,strg,Wolyn,ostrog_kij,kij,30,464,"",31.45,49.28333333,,,,,,,,,,,,,,15,40,,20,,20,20,,65,30,,20,30,,,,,,,,,,,,,,60,65,,,,
kij_hrszkw,1405,horoszkow,ostrog,strg,Wolyn,ostrog_kij,kij,80,465,"",29.9,49.25,,,,,,,,,,,40,,20,50,100,50,,,50,30,,,,,20,50,70,,,,,,38,80,73,80,,50,,50,,,,,
kij_hs,1405,husia,ostrog,strg,Wolyn,ostrog_kij,kij,0,466,"",,,,,,,,,,,,,,200,,,,,,,,,,,,,,,,,,,,,,,,,,,,,,,,,
kij_wnc,1405,iwnica,ostrog,strg,Wolyn,ostrog_kij,kij,132,467,"",29.05,50.15,,,,,,,,,,,,,,,,,,,,,,,,,,,,,,66,,130,80,105,105,126,132,,,,,,,140,
kij_khrlk,1405,kahorlik,ostrog,strg,Wolyn,ostrog_kij,kij,98,469,"",30.8333333333333,49.85,,,,,,,,,,,,,,,,,,,,,,,,,,,,,,,68,68,52,88,98,,,,70,,,68,,,
kij_kmnk,1405,kamionka,ostrog,strg,Wolyn,ostrog_kij,kij,150,471,"",28.7,48.0333333333333,282,282,100,99,99,99,99,99,100,100,100,100,100,100,100,100,100,100,,100,100,100,150,150,100,,150,,150,150,,,150,,,,150,150,150,150,150,,,152,
kij_knw,1405,kaniow,ostrog,strg,Wolyn,ostrog_kij,kij,425,472,"",45.3666666666667,43.1,,,,,,,,,,,,,,50,100,60,100,100,100,200,120,150,130,202,120,60,202,204,200,200,220,220,159,322,322,,425,180,220,140,130,220,,425,
kij_kdn,1405,kodnia,ostrog,strg,Wolyn,ostrog_kij,kij,502,473,"",28.7,50.0833333333333,,,,,,,,,,,,,,,,,50,,50,50,,,140,370,,290,320,330,345,370,385,385,278,440,440,528,502,,407,,140,385,,582,
kij_krstszw,1405,korostaszow,ostrog,strg,Wolyn,ostrog_kij,kij,440,474,Korostyshiv,29.0667,50.3167,150,150,,225,150,159,159,180,170,174,180,150,180,180,200,230,330,330,330,300,,,480,936,300,638,,920,890,1050,1230,1230,885,440,,,,,,,,1230,,,
kij_krsn,1405,korsun,ostrog,strg,Wolyn,ostrog_kij,kij,475,475,"",31.2666666666667,49.4166666666667,,,,,198,150,,159,150,150,150,180,120,120,120,120,120,80,120,180,122,150,,333,180,232,422,336,330,330,345,345,248,440,440,,475,170,345,170,170,345,,573,
kij_kszwt,1405,koszowata,ostrog,strg,Wolyn,ostrog_kij,kij,300,476,"",30.61666667,49.48333333,,,,,,,,,,,,,,,,,,,,,,,40,,,,,,,200,108,108,77,146,146,,300,,120,70,50,108,,330,
kij_ktln,1405,kotelnia,ostrog,strg,Wolyn,ostrog_kij,kij,350,477,"",28.9666666666667,50.1166666666667,,,,,,,,,,120,,,,40,80,75,75,70,80,100,,,180,250,,,240,250,272,330,465,345,216,293,293,351,350,210,345,185,180,345,,390,
kij_krsnpl,1405,krasnopol,ostrog,strg,Wolyn,ostrog_kij,kij,126,478,"",28.05,49.8333333333333,,,,,,,,,,,,,,,,,,,,,,,,,,,122,,120,120,126,126,,92,126,126,,,126,,,126,,,
kij_krylw,1405,krylow,ostrog,strg,Wolyn,ostrog_kij,kij,120,479,"",33.2333333333333,49.05,,,,,,,,,,,,,,,,80,,,,150,,,,,120,,,,,,,,,,,,,,,,,,,,
kij_lszczyn,1405,leszczyn,ostrog,strg,Wolyn,ostrog_kij,kij,403,481,"",28.8333333333333,50.15,,,,,,,48,50,,50,50,52,50,50,100,70,100,100,100,100,,117,130,256,110,174,255,260,272,310,400,400,,322,322,387,403,130,,,130,400,,430,
kij_mdwdwk,1405,medwedowka,ostrog,strg,Wolyn,ostrog_kij,kij,30,482,"",27.8833333333333,49.4333333333333,,,,,,,,,,,,,,,,80,180,120,180,250,,,,,250,,30,,,,,,,,,,,,,,,,,,
kij_mrpl,1405,miropol,ostrog,strg,Wolyn,ostrog_kij,kij,354,485,"",27.7,50.1,198,198,,135,195,195,195,150,160,165,160,170,160,160,120,160,180,180,180,180,155,180,,300,180,,,,352,352,,,129,293,293,,354,,,,,,,390,
kij_mszn,1405,moszna,ostrog,strg,Wolyn,ostrog_kij,kij,405,486,"",31.75,49.5166666666667,,,,,,,,40,,20,50,53,50,60,100,60,150,130,130,75,,345,180,353,75,232,350,355,250,250,325,325,234,303,303,,405,180,350,180,180,325,,400,
kij_mtwlwk,1405,motowolowka,ostrog,strg,Wolyn,ostrog_kij,kij,130,488,motowilowka,30.0833333333333,50.15,,,,,,,,,,,30,,,,,,,,,,,,,71,,,71,71,77,70,73,73,52,105,105,,130,,73,,,73,,150,
kij_mtwlwk,1405,motowolowka,ostrog,strg,Wolyn,ostrog_kij,kij,0,488,motowilowka,30.0833333333333,50.15,,,,,,,,,,,,,,50,100,50,,,100,,,,,,50,,,,,,,,,,,,,,,,,,,,
kij_lwsk,1405,olewsk,ostrog,strg,Wolyn,ostrog_kij,kij,150,490,"",27.65,51.2166666666667,120,120,,40,48,60,78,78,,,,,100,50,,40,40,,40,60,,,60,,,,,,,,,,,,,,,,,,60,,,150,
kij_pwlcz,1405,pawolocz,ostrog,strg,Wolyn,ostrog_kij,kij,1026,492,"",29.45,49.8666666666667,,,,150,,75,,,,,,,,200,,300,330,330,330,,,,,,250,812,,,1000,1300,1300,909,,,1026,,,,963,,,1300,,,
kij_phrbyszcz,1405,pohrebyszcze,ostrog,strg,Wolyn,ostrog_kij,kij,860,494,"",29.2666666666667,49.4833333333333,,,,,198,150,99,99,100,,,,,100,130,130,210,210,210,210,,,320,530,150,580,,,570,990,715,715,,646,646,775,,,800,330,320,715,,860,
kij_prdzw,1405,pradzow,ostrog,strg,Wolyn,ostrog_kij,kij,117,495,"",,,,,,,,,,,,,,,,,,,,,,,,,,,,,,,,100,108,108,78,117,117,,,,,,,108,,,
kij_przybrsk,1405,przyborsk,ostrog,strg,Wolyn,ostrog_kij,kij,105,496,"",30.0333333333333,51.0166666666667,,,,,,,,,,,,,,,,,,,,,,141,50,81,,58,81,81,80,88,92,92,68,,80,96,,50,110,50,50,92,,105,
kij_rdmysl,1405,radomysl,ostrog,strg,Wolyn,ostrog_kij,kij,305,497,"",29.2333333333333,50.5,,,,,,,,,,,,,,,,,,,,50,,65,,152,50,,,154,160,200,212,212,153,249,249,,305,65,,100,,212,,,
kij_rjgrd,1405,rejgrod,ostrog,strg,Wolyn,ostrog_kij,kij,176,498,"",22.7,53.73333333,,,,,,,,,,,,,,,,,36,,36,36,,115,100,200,36,120,199,203,,,,,74,146,146,176,,75,,100,100,,,,
kij_rktn,1405,rokitna,ostrog,strg,Wolyn,ostrog_kij,kij,53,499,"",27.21666667,51.28333333,,,,,,,,,,,,,,20,40,20,,,20,25,,92,30,53,25,,53,53,,,,,30,44,44,52,,50,,50,50,,,53,
kij_rzw,1405,rozow,ostrog,strg,Wolyn,ostrog_kij,kij,230,500,"",28.2833333333333,48.2333333333333,,,,,,,,,,,,,,,,,,,,,,,50,,,60,,,,,,,,,,,230,,100,,,,,,
kij_rzszczw,1405,rzeszczow,ostrog,strg,Wolyn,ostrog_kij,kij,132,502,"",24.7666666666667,50.35,,,,,,,,,,,,,,,,,,,,,,,,,,,,,,,,,,132,132,,,,,,,,,,
kij_skwr,1405,skwira,ostrog,strg,Wolyn,ostrog_kij,kij,300,503,"",29.6666666666667,49.7333333333333,,,,,,,,,,,30,,,20,40,25,25,,25,30,,79,,,30,30,59,,,,,,64,220,,,300,,130,360,,,,330,
kij_smyl,1405,smyla,ostrog,strg,Wolyn,ostrog_kij,kij,660,504,"",31.8833333333333,49.2166666666667,,,,,,,48,50,50,50,200,32,,200,200,130,200,200,200,250,,300,,550,250,,697,,,300,,,,660,,,,360,565,,350,,,,
kij_stwszcz,1405,stawiszcze,ostrog,strg,Wolyn,ostrog_kij,kij,30,505,"",30.2,49.4,,,,,,,,,30,30,30,,,30,60,30,,,,,,,,,,,,,,,,,,,,,,,,,,,,,
kij_slbdyszcz,1405,slobodyszcze,ostrog,strg,Wolyn,ostrog_kij,kij,60,506,"",29.6,48.9666666666667,,,,,39,78,60,,100,,,,,40,80,,,,,,,,,,150,,,,,,,,,,,,,,,,,,,,
kij_trszcz,1405,taraszcza,ostrog,strg,Wolyn,ostrog_kij,kij,120,507,"",30.5,49.5666666666667,,,,,,,,,,,,,,,,,,,,,,105,50,107,,60,106,108,120,,,,83,120,,,,50,,50,50,,,,
kij_ttls,1405,totals,ostrog,strg,Wolyn,ostrog_kij,kij,22217,,"",,,1443,1443,100,1417,1728,2322,2133,2034,2375,1844,1930,2084,1750,3624,4650,4306,5618,4735,6459,4667,1996,6087,6940,11524,4461,8767,12096,10460,9706,13176,11903,12823,8164,18320,15676,7328,10005,5795,12356,5565,5755,13790,,12421,
kij_stblw,1405,steblow,ostrog,strg,Wolyn,ostrog_kij,kij,176,508,"",,,,,,,,,30,30,30,30,30,,,30,60,30,36,,72,40,,138,60,108,40,60,107,109,117,110,118,118,84,146,146,176,,,118,60,60,118,,176,
kij_trktmrw,1405,traktamirow,ostrog,strg,Wolyn,ostrog_kij,kij,127,509,"",31.3333333333333,49.9833333333333,,,,,,,,,,,,,,,,,30,,50,30,,,40,89,30,50,88,89,95,92,97,97,68,117,127,,,50,100,50,50,97,,,
kij_trjnw,1405,trojanow,ostrog,strg,Wolyn,ostrog_kij,kij,60,510,"",28.5333333333333,50.1166666666667,,,,,30,48,48,78,70,70,70,75,,80,160,,,,,,,,,,,,,,,,,,,,,,,60,,,60,,,,
kij_szmr,1405,uszomier,ostrog,strg,Wolyn,ostrog_kij,kij,90,511,"",28.4666666666667,50.8666666666667,,,,,99,78,120,150,100,100,100,,,150,,75,50,,,50,,,80,116,50,96,117,118,80,88,88,,50,,70,84,,80,,80,80,,,90,
kij_wrnyhrdk,1405,wernyhorodok,ostrog,strg,Wolyn,ostrog_kij,kij,46,512,"",28.9,49.7833333333333,,,,,,,,,,,,,,15,30,20,25,,50,25,,144,40,,25,46,,,,,,,,,,,,40,,50,50,,,,
kij_wlsk,1405,wilsk,ostrog,strg,Wolyn,ostrog_kij,kij,75,513,"",28.5166666666667,50.3833333333333,,,,,,,,,,,,,,,,50,40,,40,,,,75,,,,,,,,,,,,,,,,,,,,,,
kij_wldrk,1405,wolodarka,ostrog,strg,Wolyn,ostrog_kij,kij,755,514,"",29.9244620338245,49.5170412573298,,,,,,,,,,,,27,25,25,50,30,30,,30,40,,138,,545,40,200,466,472,487,,600,600,324,528,,,755,75,700,,,600,,750,
kij_lwkw,1405,lowkow,ostrog,strg,Wolyn,ostrog_kij,kij,100,515,"",,,,,,,,,,40,40,50,40,43,40,,,50,40,,140,70,,166,75,132,70,87,133,134,140,130,138,138,54,80,80,96,,75,138,75,75,138,,100,
kij_lysnk,1405,lysianka,ostrog,strg,Wolyn,ostrog_kij,kij,758,516,"",30.8333333333333,49.25,,,,,198,150,150,150,160,90,250,250,265,350,240,350,350,350,450,425,405,400,400,612,420,464,607,635,,612,624,624,449,650,650,,,410,700,410,400,624,,758,
kij_mkrw,1405,makarow,ostrog,strg,Wolyn,ostrog_kij,kij,200,518,"",29.8166666666667,50.4666666666667,,,,,,,,,,,,,,,,,,,30,30,,82,35,121,30,35,,,110,200,212,,,,,,200,,225,35,,212,,,
kij_zbtyn,1405,zabotyn,ostrog,strg,Wolyn,ostrog_kij,kij,50,519,"",32.15,49.15,,,,,,,,,,,,,,,,,50,,50,50,,,,,50,,,,,,,,,,,,,,,,,,,,
kij_zytmrz,1405,zytomierz,ostrog,strg,Wolyn,ostrog_kij,kij,360,520,"",28.6833333333333,50.2666666666667,,,,,60,48,75,99,80,80,50,,250,120,150,150,186,185,186,186,224,300,300,262,,,330,340,415,,,430,,366,366,366,360,420,,300,300,,,404,
wol_lksndryj,1406,aleksandryja,ostrog,strg,Wolyn,ostrog_wol,wol,150,521,"",26.35,50.7333333333333,498,498,,198,,174,174,,175,174,175,,130,95,130,150,125,125,125,130,132,150,,,140,,,,,,,,,,,,,,,,,,,,
wol_brznc,1406,bereznica,ostrog,strg,Wolyn,ostrog_wol,wol,528,525,"",26.4647958186845,51.4318120266411,282,282,,324,,348,348,348,350,348,300,300,300,300,300,300,260,260,260,300,,,,504,260,,570,520,,,415,415,,440,440,528,,,,,,415,,528,
wol_brzn,1406,berezno,ostrog,strg,Wolyn,ostrog_wol,wol,375,526,"",26.7428382392154,50.99111756199,264,264,,300,348,348,348,348,375,,,,,,350,300,260,260,260,260,,,,,,,430,,,,,,162,293,293,341,,,,,,,,375,
wol_blgrdk,1406,bialogrodka,ostrog,strg,Wolyn,ostrog_wol,wol,160,527,"",25.55,50.3166666666667,50,50,,,,,,,,50,50,50,100,50,100,,,,,,,50,60,120,50,,,,120,,,,,146,146,166,160,,,,60,,,168,
wol_czrtryj,1406,czartoryja,ostrog,strg,Wolyn,ostrog_wol,wol,132,528,"",25.8666666666667,51.2166666666667,,,,,,,48,35,30,35,40,40,40,45,90,,,,,,,70,60,,,80,101,30,,,,,60,132,132,,,80,,80,60,,,,
wol_czrnlwk,1406,czernilowka,ostrog,strg,Wolyn,ostrog_wol,wol,150,529,"",,,,,,,,,,50,,,,,,,,45,45,,,45,,60,45,,45,,,,,,,,61,133,133,,150,50,,,50,,,,
wol_drzn,1406,derazna,ostrog,strg,Wolyn,ostrog_wol,wol,190,530,"",26.05,50.8666666666667,140,140,,207,249,249,,198,200,174,175,150,,,100,100,90,90,54,90,112,,,202,,160,200,200,,,180,,81,161,,169,190,,,,,180,,190,
wol_drmn,1406,derman,ostrog,strg,Wolyn,ostrog_wol,wol,150,531,"",26.2166666666667,50.3833333333333,,,,,120,99,,100,,,,,,150,150,200,,150,150,150,,,120,120,,120,120,120,,,150,,,,,,,,,,120,150,,,
wol_grnd_ttls_fr_strg,1406,grand_totals_for_ostrog,ostrog,strg,Wolyn,ostrog_wol,wol,42077,,"",,,29675,29675,32387,31028,21970,17060,18483,22793,23291,24230,27825,27219,28284,31860,33796,18301,,,15909,13705,15331,22121,18316,30403,14553,31712,33749,24997,26934,33675,30931,29310,14931,34322,29011,18097,20534,22344,30300,16425,18404,29186,,23532,
wol_gpkw,1406,gupkow,ostrog,strg,Wolyn,ostrog_wol,wol,50,532,"",27.05,50.8333333333333,,,,,,,,,50,50,50,50,,,,,,,,,,,,,,,,,,,,,,,,,,,,,,,,,
wol_hszcz,1406,hoszcza,ostrog,strg,Wolyn,ostrog_wol,wol,260,533,"",26.6768278376889,50.5939696558528,100,100,,50,99,99,99,99,100,100,,40,40,40,80,40,100,100,100,105,122,,,209,115,140,209,210,,,,180,108,220,220,264,260,,220,,,180,,300,
wol_hrycw,1406,hrycow,ostrog,strg,Wolyn,ostrog_wol,wol,142,534,"",27.2265085616139,49.9631111837887,40,40,,70,69,60,69,69,70,70,70,,,70,140,70,75,75,75,75,,100,100,131,75,116,132,132,142,160,167,,,,,,,,142,,100,167,,,
wol_hlwczw,1406,hulewiczow,ostrog,strg,Wolyn,ostrog_wol,wol,30,535,"",25.2193224623243,51.2578913785683,,,,,,,,,,,,,,15,40,25,30,,,30,,,,,30,,,,,,,,,,,,,,,,,,,,
wol_jnw,1406,janow,ostrog,strg,Wolyn,ostrog_wol,wol,153,536,"",24.1163888888889,50.7944444444444,,,,,,,,,,,,,,,,,,,,,,,40,,,40,222,153,,,,,,,,,,,,,50,,,,
wol_knstntynw,1406,konstantynow,ostrog,strg,Wolyn,ostrog_wol,wol,1050,538,"",,,,,,1038,,,,99,,780,,,,700,800,1000,1050,1050,,,,,,,,,2185,,,2310,,2310,1410,1320,1050,,,,,,,2310,,,
wol_krzc,1406,korzec,ostrog,strg,Wolyn,ostrog_wol,wol,700,539,"",27.1292848535212,50.6065737602135,933,933,,1200,948,,,99,,,,,,900,900,900,745,855,301,,810,,900,800,,960,910,827,,1000,1000,700,,,,,700,920,700,920,900,1000,,,
wol_krsylw,1406,krasylow,ostrog,strg,Wolyn,ostrog_wol,wol,315,541,"",26.9666666666667,49.65,50,50,,198,300,300,300,249,250,,,,,250,240,300,295,295,295,,,,,,,,600,,,,,440,237,300,,,315,,,,,,,,
wol_krp,1406,krupa,ostrog,strg,Wolyn,ostrog_wol,wol,222,542,"",26.5002758147272,50.6516982682608,100,100,,117,90,90,90,90,,,,,,100,75,120,120,120,120,125,,39,,232,140,,230,230,,,,,108,190,190,228,222,,220,,,,,250,
wol_klczyn,1406,kulczyn,ostrog,strg,Wolyn,ostrog_wol,wol,236,543,"",24.4666666666667,51.1,,,,,60,,,,60,,,,,100,150,150,100,100,100,100,122,150,150,282,115,196,283,283,280,300,315,,108,190,190,228,236,155,300,155,150,315,,,
wol_knw,1406,kuniow,ostrog,strg,Wolyn,ostrog_wol,wol,95,544,"",26.3784428445861,50.2379804967259,,,,,,,,,,,,,,40,100,,,50,50,50,,,50,80,80,,80,80,,,,,47,,,95,,,,50,50,,,,
wol_kzmn,1406,kuzmin,ostrog,strg,Wolyn,ostrog_wol,wol,332,545,"",27.0864246386942,49.6942266152401,,,,,30,30,30,30,,,50,40,50,50,140,180,174,175,200,,,344,370,,,,500,,,,323,160,216,293,,351,332,,,380,370,323,,394,
wol_mryn,1406,maryan,ostrog,strg,Wolyn,ostrog_wol,wol,300,546,"",,,,,,,,,,,,,,,,,,,,,,,,,225,,,225,300,,,,,,,,,,,205,,,,,,,
wol_mdzyrzcz_krck,1406,miedzyrzecz_korecki,ostrog,strg,Wolyn,ostrog_wol,wol,1700,547,"",26.86666667,50.65,240,240,700,699,,,,699,,200,,1300,,200,200,200,,400,200,396,,,,,,,,,,,,,1056,,,,1700,,,,,,,1200,
wol_strpl,1406,ostropol,ostrog,strg,Wolyn,ostrog_wol,wol,150,550,"",27.55,49.8166666666667,348,348,100,198,177,213,177,177,100,100,200,200,200,200,200,200,210,200,210,210,210,224,255,400,210,300,400,400,420,425,433,433,150,,,,150,255,158,255,255,433,,,
wol_strg,1406,ostrog,ostrog,strg,Wolyn,ostrog_wol,wol,1286,551,"",26.5265492856806,50.3295195120305,4098,3798,,1496,1656,3483,6444,4328,4657,4383,3915,4021,5260,4432,2146,2961,4439,,788,4100,3360,10361,4206,1676,4596,4570,3844,1689,3745,390,3600,3600,,930,1286,,,9881,5450,2724,3978,3620,,,
wol_rwn,1406,rowno,ostrog,strg,Wolyn,ostrog_wol,wol,787,552,"",26.2624680797275,50.6105938879652,235,235,,1623,,,,150,,,,,,366,666,666,,,,,731,,,800,,700,,,,,,,,,,787,,,,,,,,,
wol_plnn,1406,polonne,ostrog,strg,Wolyn,ostrog_wol,wol,750,553,"",27.5195969364713,50.1174948899498,1932,1932,500,888,698,198,498,747,500,500,500,500,800,800,800,800,880,830,500,,,,380,1214,,464,1214,750,750,1355,605,364,,880,880,,750,390,1500,390,380,750,,1718,
wol_srny,1406,sarny,ostrog,strg,Wolyn,ostrog_wol,wol,50,554,"",26.6,51.3333333333333,,,,,,,,,50,50,50,,,,,,,,,,,,,,,,,,,,,,,,,,,,,,,,,,
wol_stpn,1406,stepan,ostrog,strg,Wolyn,ostrog_wol,wol,792,555,"",26.299894067448,51.1317598532733,1398,1398,,1419,1200,1218,,,,1200,,,700,,1150,1000,,,1335,280,,,600,,650,700,600,,,,,,365,660,660,792,,700,,550,600,,,,
wol_sdylkw,1406,sudylkow,ostrog,strg,Wolyn,ostrog_wol,wol,220,556,"",27.1300089948138,50.1696325432066,318,318,,180,180,198,,,,,,,,,200,230,225,225,,,,,330,600,,,530,620,600,600,,,,220,220,,,,720,,330,,,,
wol_szmsk,1406,szumsk,ostrog,strg,Wolyn,ostrog_wol,wol,285,557,"",26.1264422341505,50.1243188079118,,,,,,,,20,20,,,,,,,50,50,,100,105,,230,50,202,50,60,204,203,215,200,212,212,153,234,234,280,285,50,,50,50,212,,315,
wol_slwt,1406,slawuta,ostrog,strg,Wolyn,ostrog_wol,wol,272,558,"",26.8808257408614,50.2981203542716,,,,99,,,99,99,,,,,,100,100,150,130,,130,100,,112,160,232,130,184,230,231,,230,240,,,226,266,,272,150,260,165,160,240,,300,
wol_ttls,1406,totals,ostrog,strg,Wolyn,ostrog_wol,wol,17032,,"",,,13445,12765,2959,14618,8410,8550,10170,9144,8307,9374,6195,7543,8200,10833,11917,12337,10903,6825,8138,7756,8415,12660,10531,9607,8671,9805,17877,7553,7577,10870,10080,11674,5121,11635,7395,6534,5422,14536,13173,8644,10793,12685,,9236,
wol_tczyn,1406,tuczyn,ostrog,strg,Wolyn,ostrog_wol,wol,787,559,"",26.5780693025542,50.6903847439389,,,,942,750,,,,,,,,100,500,300,450,300,545,545,345,605,,,500,545,,800,,,,,,,856,689,827,,,820,715,700,,,787,
