id_miejscowosci,nazwa_wspolczesna,nazwa_16w,charakter_osady,rodzaj_wlasnosci,powiat_p,woj_p,wielkosc_karto,lat,lon
Abramowice_scz_krk,Szczyrzyc - część,Abramowice,wieś,d,szczyrzycki,krakowskie,mała,49.7916367060000624,20.1944381890000209
Krolewo_mlb_mlb,Królewo,Königsdorf,wieś,k,malborski,malborskie,mała,54.0441558216148081,19.1392760656538918
Zagawki_kam_maz,Adelin,Zagawki,wieś,k,kamieniecki,mazowieckie,mała,52.4975819640000765,21.4565734740000806
Adamowo_wrk_maz,Adamów,Adamowo,wieś,s,warecki,mazowieckie,mała,51.7235025800000727,21.3036025310001413
Lag_tch_pmr,Łąg,Łąg,wieś,k,tucholski,pomorskie,mała,53.8281075935629758,18.0704737729641138
Bartodzieje_rdm_rds_srd,Bartodzieje Włościańskie,Bartodzieje,wieś,s,radomszczański,sieradzkie,mała,51.0865324890000281,19.4543594750000253
Beldowo_lcz_lcz,Bełdów - część,Bełdowo,wieś,s,łęczycki,łęczyckie,mała,51.8241242440000462,19.1890399840000292
Bialki_II_stz_snd,Białki Dolne and Białki Górne,Białki II,wieś,s,stężycki,sandomierskie,mała,51.5879374500001475,22.0730463110008444
Bialkowo_plc_plc,Białkowo,Białkowo,wieś,d,płocki,płockie,mała,52.5478570606550051,19.8421512360908743
Bialobrzeg_I_osl_maz,Białobrzeg Bliższy,Białobrzeg I,wieś,s,ostrołęcki,mazowieckie,mała,53.1067408130000089,21.4807073559999431
Bialocin_ptr_srd,,Białocin,wieś,s,piotrkowski,sieradzkie,mała,51.2808608269999908,19.6188101770000607
Bestwiszowa_bck_krk,Bistuszowa,Bestwiszowa,wieś,s,biecki,krakowskie,mała,49.8822781460000115,21.0988841430002303
Biszewo_drh_pdl,Biszewo,Biszewo,wieś,s,drohicki,podlaskie,mała,52.5526676922220872,22.8069940156543538
Blizin_opc_snd,Bliżyn,Blizin,wieś,s,opoczyński,sandomierskie,mała,51.1081870990000695,20.7561364190000788
Bobino_Wielkie_Chrzczony_prz_maz,Bobino Wielkie,Bobino Wielkie-Chrzczony,wieś,s,przasnyski,mazowieckie,mała,53.0385442400000784,21.0670727070000758
Chycza_Mala_llw_krk,Chycza,Chycza Mała,wieś,s,lelowski,krakowskie,mała,50.7005663190000817,20.0600806450000633
Czaplice_Dobki_prz_maz,Czaplice-Wielkie,Czaplice-Dobki,wieś,s,przasnyski,mazowieckie,mała,53.2023386140000056,20.8573084850000541
Czarna_rdm_snd,,Czarna,wieś,s,radomski,sandomierskie,mała,51.4244224810001072,21.4361739450002808
Czarnocin_ndz_plc,Czarnocin,Czarnocino,wieś,s,niedzborski,płockie,mała,52.9103802714325155,20.3851018092013128
Ondy_Czarnowo_zmb_maz,Undy-Czarnowo,Ondy-Czarnowo,wieś,s,zambrowski,mazowieckie,mała,53.0257384080003078,22.4305708039995615
Dabrowno_llw_krk,,Dąbrowno,wieś,s,lelowski,krakowskie,mała,50.6729169820000536,19.544118320000095
Dabrowka_now_pmr,Dąbrówka,Dąbrówka,wieś,s,nowski,pomorskie,mała,53.7328260624912772,18.752461451736508
Dabrowka_sko_opc_snd,,Dąbrówka,wieś,s,opoczyński,sandomierskie,mała,51.2467508650000454,19.9506861550000636
Dabrowka_crk_scz_krk,,Dąbrówka,wieś,k,szczyrzycki,krakowskie,mała,50.0373697400000239,20.5557871810000847
Dabrowki_Sieprskie_sie_plc,Dąbrówki,Dąbrówki Sieprskie,wieś,s,sierpecki,płockie,mała,52.8713411888449656,19.7169686155093729
Dabrowka_Warsz_rdm_snd,Dąbrówka Warszawska,Dąbrówka-Warsz,wieś,s,radomski,sandomierskie,mała,51.2865079660000518,21.1016359670001172
Deba_opc_snd,,Dęba,wieś,s,opoczyński,sandomierskie,mała,51.1631584080000437,20.2649827730000816
Blota_wrs_maz,Warszawa-Błota,Błota,wieś,d,warszawski,mazowieckie,mała,52.152671348000041,21.1875567370001505
Bobrowniki_chc_snd,,Bobrowniki,wieś,s,chęciński,sandomierskie,mała,50.9690048340000175,19.84223183300006
Bobrowniki_swr_swr,,Bobrowniki,wieś,s,księstwo siewierskie,księstwo siewierskie,mała,50.3792229030000485,18.9888412720000268
Bochlin_Szlachecki_now_pmr,Bochlin,Bochlino,wieś,s,nowski,pomorskie,mała,53.6723036300722356,18.727502461177167
Bochotnica_kaz_lub_lub,,Bochotnica,wieś,s,lubelski,lubelskie,mała,51.3393847733967448,21.9930852630565994
Boczki_Zarzeczne_orl_lcz,,Boczki Zarzeczne,wieś,s,orłowski,łęczyckie,mała,52.0224075150000189,19.6643456880000471
Paszyn_sdc_krk,,Paszyn,wieś,m,sądecki,krakowskie,mała,49.6264559480000642,20.7801775490000367
Boguslawice_snd_snd,,Bogusławice,wieś,s,sandomierski,sandomierskie,mała,50.8406863850000619,21.4181925980003491
Boiska_rdm_snd,,Boiska,wieś,d,radomski,sandomierskie,mała,51.1760085120000952,21.7618676650005796
Bolan_prs_krk,Bosutów - część,Bolań,wieś,s,proszowicki,krakowskie,mała,50.1303840300001156,19.9830457800000509
Debe_ltw_gar_maz,Dębe Małe,Dębe,wieś,s,garwoliński,mazowieckie,mała,52.0099729280001171,21.7595838830003352
Debe_mns_gar_maz,Dębe Wielkie,Dębe,wieś,k,garwoliński,mazowieckie,duża,52.1967858920000367,21.4398599150001097
Borow_snd_snd,,Borów,osada folwarczna,s,sandomierski,sandomierskie,,50.5933766780000838,21.7043268680007486
Bolemowska_Wies_sch_raw,Bolimowska Wieś,Bolemowska Wieś,wieś,k,sochaczewski,rawskie,duża,52.0836923990000784,20.1862216070000322
Bonikowo_ksc_pzn,Bonikowo,Bonikowo,wieś,k,kościański,poznańskie,duża,52.1262713977216308,16.6316578039765126
Branina_wsl_snd,Bronina,Branina,wieś,d,wiślicki,sandomierskie,mała,50.4657011190000517,20.7609840460000292
Facimiechy_sls_krk,Facimiech,Facimiechy,wieś,d,śląski,krakowskie,mała,49.9724907240000462,19.7196577540000071
Falecino_wsg_maz,Falęcin,Falęcino,wieś,s,wyszogrodzki,mazowieckie,mała,52.6098045080000745,20.1353721870000584
Faszcze_Jablon_zmb_maz,Faszcze,Faszcze-Jabłoń,wieś,s,zambrowski,mazowieckie,mała,52.9457201330002505,22.3643571709996714
Filochy_Milan_osl_maz,Filochy-Milen,Filochy-Milan,wieś,s,ostrołęcki,mazowieckie,mała,52.9878290950000874,21.8338508400000144
Galazki_Dluzniewo_lom_maz,Gałązki,Gałązki-Dłużniewo,wieś,s,łomżyński,mazowieckie,mała,53.1462130510001316,21.9752617949998275
Galkow_Wielki_brz_lcz,"Gałków Duży, Gałków Mały",Gałków Wielki,wieś,d,brzeziński,łęczyckie,duża,51.7285333000000094,19.7261227000000474
Garbatka_pzn_pzn,Garbatka,Garbatka,wieś,k,poznański,poznańskie,mała,52.7417826755752017,16.9625657710745443
Gudosy_nur_maz,Godlewo-Gudosze,Gudosy,wieś,s,nurski,mazowieckie,mała,52.7600514860002221,22.2831468369999577
Ogony_rpn_dbr,,Paprotki-Ogony,wieś,s,rypiński,ziemia dobrzyńska,,,
Godlewo_Warsze_nur_maz,,Godlewo-Warsze,wieś,s,nurski,mazowieckie,mała,52.7242721040002777,22.3010530010000387
Bolikow_wln_srd,Bolków,Bolików,wieś,s,wieluński,sieradzkie,mała,51.3217982300000415,18.6160016380000286
Borowy_rds_srd,Borowiec,Borowy,osada młyńska,k,radomszczański,sieradzkie,,51.0444251899999983,19.1604280610000899
Ruda_lpn_dbr,,Rudny,osada młyńska,s,lipnowski,ziemia dobrzyńska,,52.8857385309842059,19.3841453403861266
Branczyce_ndz_prs_krk,Brończyce,Brańczyce,wieś,d,proszowicki,krakowskie,mała,50.2322249600000674,20.1221014810000334
Brudno_lub_lub,,Brudno,wieś,s,lubelski,lubelskie,mała,51.6251494320007609,22.8542838060034299
Wola_Brzeska_wrk_maz,Brzeska Wola,Wola Brzeska,wieś,s,warecki,mazowieckie,mała,51.613578476000022,21.0248023340000891
Godziszewy_rpn_dbr,Godziszewy,Godziszewy,wieś,s,rypiński,ziemia dobrzyńska,duża,53.0595966085323667,19.473229871988913
Goleszow_plz_snd,,Goleszów,wieś,s,pilzneński,sandomierskie,mała,50.2384699440000304,21.4517118330004415
Golab_rud_lub_lub,,Gołąb,wieś,s,lubelski,lubelskie,mała,51.4961389740003312,22.3758658420016729
Kaki_Mroczki_prz_maz,,Kaki-Mroczki,wieś,s,przasnyski,mazowieckie,mała,53.130913787000047,20.8879015050000625
Kalen_ptr_srd,,Kaleń,wieś,s,piotrkowski,sieradzkie,mała,51.4876741660000619,19.8947078210000257
Kalina_kal_kss_krk,Kalina Wielka,Kalina,wieś,s,ksiąski,krakowskie,duża,50.3833583300000569,20.161100631000032
Kaliszkowice_ost_srd,Kaliszkowice Ołobockie,Kaliszkowice,wieś,d,ostrzeszowski,sieradzkie,mała,51.5477285240000427,18.0459026140000489
Wola_Kamienska_opc_snd,Kamienna Wola,Wola Kamieńska,wieś,s,opoczyński,sandomierskie,mała,51.5192055450000481,20.5214288550000781
Brzozowiec_scz_krk,Brzesko-Brzezowiec,Brzozowiec,wieś,s,szczyrzycki,krakowskie,mała,49.9762175910000934,20.6242204790000478
Nowinki_mlb_mlb,Tujsk-część,Neudorf,wieś,k,malborski,malborskie,mała,54.2745059561273919,19.140092266918046
Budzyno_Walendzieta_mak_maz,,Budzyno-Walendzięta,wieś,s,makowski,mazowieckie,mała,52.8955766360000084,21.0909650990000443
Ploskie_Swiechy_prz_maz,Święchy Płoskie,Płoskie Święchy,wieś,s,przasnyski,mazowieckie,mała,53.2632165410000624,20.7360658280000791
Bukowie_kcn_kls,Bukowiec,Bukowie,wieś,d,kcyński,kaliskie,mała,52.8596240261044841,17.2375784747380223
Bukowo_pzn_pzn,Bukowo,Bukwolt,wieś,s,poznański,poznańskie,mała,53.1003988182837361,16.2027128546503931
Kamionka_plz_snd,,Kamionka,wieś,k,pilzneński,sandomierskie,mała,50.1473006000000652,21.6683644670007851
Orly_drh_pdl,,Orły,wieś,s,drohicki,podlaskie,,,
Ruda_Katy_lub_lub,Karolówka,Ruda Kąty,osada kuźnicza,s,lubelski,lubelskie,,50.6149147730005851,22.7061521790056666
Karwowo_Wszebory_rdz_maz,,Karwowo-Wszebory,wieś,s,radziłowski,mazowieckie,duża,53.3270374010002399,22.3233744189992862
Kasinka_scz_krk,Kasinka Mała,Kasinka,wieś,k,szczyrzycki,krakowskie,mała,49.7199710200000666,20.0490624040000434
Stary_Klasztor_ksc_pzn,Kaszczor,Stary Klasztor,wieś,d,kościański,poznańskie,mała,51.9583535518008688,16.1605956070176653
Wola_Kaszowska_rdm_snd,Kaszewska Wola,Wola Kaszowska,wieś,s,radomski,sandomierskie,mała,51.5129143010000803,20.9196725450000436
Bryczynka_Gorna_scz_krk,Brzyczyna - część,Bryczynka Górna,wieś,s,szczyrzycki,krakowskie,mała,49.9590562870000383,19.8788436960000325
Brzeszczki_bck_krk,Brzyszczki,Brzeszczki,wieś,k,biecki,krakowskie,mała,49.7575886870000659,21.5012786300005843
Kierzkowo_kcn_kls,Kierzkowo,Kierzkowo,wieś,s,kcyński,kaliskie,mała,52.8483433273807748,17.8765749323923906
Mokiernica_czl_pmr,,Mokiernica,wieś,m,człuchowski,pomorskie,mała,53.6384789293583495,16.9411736694990651
Busnia_now_pmr,Buśnia,Buśna,osada folwarczna,s,nowski,pomorskie,,53.5339492623692337,18.5835750467302816
Bylice_Wielkie_nmo_maz,Bylice,Bylice Wielkie,wieś,s,nowomiejski,mazowieckie,mała,52.6979889110000244,20.7423628020000947
Kolo_ptr_srd,,Koło,wieś,d,piotrkowski,sieradzkie,mała,51.4296744720000518,19.8407354319999918
Komadzyno_gos_raw,Komadzyń,Komadzyno,wieś,s,gostyniński,rawskie,mała,52.2492485960001005,19.4320225290000899
Konczyce_rdm_snd,,Kończyce,wieś,s,radomski,sandomierskie,mała,51.3711986760000414,21.0675161330001224
Kopana_bln_maz,,Kopana,wieś,s,błoński,mazowieckie,mała,52.0909274850000443,20.7440870920000968
Stary_Folusz_pzn_pzn,,Stary Folusz,osada młyńska,k,poznański,poznańskie,,,
Byczki_bla_raw,,Byczki,wieś,s,bialski,rawskie,mała,51.8312799170000886,20.5615677220000883
Korzen_gbn_raw,Korzeń Królewski,Korzeń,wieś,ks,gąbiński,rawskie,mała,52.4297346310000592,19.6221758520000087
Olszewo_Korzybie_mla_plc,,Olszewo-Korzybie,wieś,s,mławski,płockie,mała,53.0278183928047042,20.5490383832149313
Rudno_Kosily_prz_maz,,Rudno-Kosiły,wieś,s,przasnyski,mazowieckie,mała,53.1231224840000991,20.7241954130000394
Kosowa_sls_krk,Kossowa,Kosowa,wieś,s,śląski,krakowskie,mała,49.9677318020000243,19.6013985420000445
Kossobudy_rac_plc,,Kossobudy,wieś,s,raciąski,płockie,mała,52.7857030653443644,20.1925649720960081
Koszuty_tuc_luk_lub,Kosuty,Koszuty,wieś,s,łukowski,lubelskie,mała,51.873897780000199,22.1663812730007592
Wierzbno_ksc_pzn,,Wierzbno,wieś,s,kościański,poznańskie,,,
Koszanowo_pzn_pzn,Koszanowo,Koszanowo,wieś,d,poznański,poznańskie,mała,52.5076867103196321,16.3452061975812128
Golowasy_nkl_kls,,Gołowąs,pustka,,nakielski,kaliskie,,,
Swiedrzew_kls_kls,,Świędrew,osada młyńska,k,kaliski,kaliskie,,,
Drozdowo_nkl_kls,,Drozdowo,pustka,,nakielski,kaliskie,,,
Ospowo_nkl_kls,,Ospowo,pustka,,nakielski,kaliskie,,,
Gogolin_nkl_kls,,Gogolin,pustka,,nakielski,kaliskie,,,
Wiesiolka_nkl_kls,,Wiesiołka,pustka,,nakielski,kaliskie,,,
Tolkmicko_Dwor_mlb_mlb,Tolkmicko-część,Tolkemit,osada folwarczna,k,malborski,malborskie,,54.3170844554015915,19.5292993511518311
Kosorzyn_inw_inw,Toruń - część,Kosorzyno,wieś,k,inowrocławski,inowrocławskie,,,
Cedry_Wielkie_gdn_pmr,Cedry Wielkie,Gross Zinder,wieś,m,gdański,pomorskie,duża,54.2483205690946875,18.8472927529782091
Koszewnica_ole_liw_maz,,Koszewnica,wieś,s,liwski,mazowieckie,mała,52.1679924190001572,21.9869286760003178
Ruda_Kosior_rdm_snd,Komorów,Ruda Kosior,osada kuźnicza,s,radomski,sandomierskie,,51.2313386130000623,20.7853486380000696
Mikorzyn_inw_inw,Mikorzyn (Inowrocław - część),Mikorzyno,pustka,m,inowrocławski,inowrocławskie,,52.7591786687378956,18.2558978009671868
Koziki_Jalbrzykowstok_zmb_maz,Koziki,Koziki-Jałbrzykówstok,wieś,s,zambrowski,mazowieckie,mała,53.0333358550002458,22.2528450059997205
Ceten_opc_snd,,Ceteń,wieś,s,opoczyński,sandomierskie,mała,51.5108939790000591,20.3018205610000742
Kozina_wsl_snd,,Kozina,wieś,s,wiślicki,sandomierskie,mała,50.5132696820000149,20.7652699710001372
Mniszek_gzn_kls,,Mniszek,pustka,d,gnieźnieński,kaliskie,,,
Kozinki_rdm_snd,,Kozinki,wieś,s,radomski,sandomierskie,mała,51.4473400730000492,21.0612133010000839
Kulesze_Mackowieta_blk_pdl,Litwa Stara,Kulesze-Maćkowięta,wieś,s,bielski,podlaskie,mała,53.0314295814232608,22.5222546825795789
Krole_nur_maz,Króle Duże,Króle,wieś,d,nurski,mazowieckie,duża,52.8265207980001534,22.0612814669999686
Krolikowo_knn_kls,Królików,Królikowo,wieś,s,koniński,kaliskie,duża,52.054593300283706,18.0134821783017571
Smierdzaca_prs_krk,Kryspinów,Śmierdząca,wieś,d,proszowicki,krakowskie,mała,50.0435327510000434,19.798171929999981
Krzcin_snd_snd,,Krzcin,wieś,d,sandomierski,sandomierskie,mała,50.563358576000077,21.5939404540005313
Krolowa_Niwa_luk_lub,Krzesk Królowa Niwa,Królowa Niwa,wieś,s,łukowski,lubelskie,mała,52.0668043060004706,22.61560858500129
Budkowszczyzna_drh_pdl,,Budkowszczyzna,wieś,s,drohicki,podlaskie,mała,52.4050694626432687,22.6329494939291322
Niewodnica_Wysockich_blk_pdl,Zalesiany,Niewodnica Wysockich,wieś,s,bielski,podlaskie,mała,53.053734054560536,23.0646027162729546
Chelchy_Klimki_cch_maz,,Chełchy-Klimki,wieś,s,ciechanowski,mazowieckie,mała,52.8654366660000505,20.9663036530000753
Chmielewo_lom_maz,,Chmielewo,wieś,s,łomżyński,mazowieckie,mała,52.9123696800001184,21.938338777999931
Krzycko_Male_wch_pzn,Krzycko Małe,Krzycko Małe,wieś,s,wschowski,poznańskie,mała,51.8936347924458587,16.4498723184097457
Krzyszkowo_pzn_pzn,Krzyszkowo,Krzyszkowo,wieś,s,poznański,poznańskie,mała,52.5258975722958397,16.7357505411226839
Zdzieszki_grc_maz,,Zdzieszki,wieś,s,grójecki,mazowieckie,,,
Kajkow_mln_pdl,,Kajków,wieś,s,mielnicki,podlaskie,,52.064416039756189,23.1389127537744947
Wilczkowice_inw_inw,,Wilczkowice,wieś,s,inowrocławski,inowrocławskie,,,
Kobylino_Kuleszki_blk_pdl,Kobylin-Kuleszki,Kobylino-Kuleszki,wieś,s,bielski,podlaskie,mała,53.0927990152183256,22.6608905078455223
Klimuntowszczyzna_drh_pdl,,Klimuntowszczyzna,wieś,s,drohicki,podlaskie,,,
Wolka_Huszlewska_mln_pdl,Bronin,Wólka,wieś,s,mielnicki,podlaskie,mała,52.1388307138053975,22.8596670744787858
Osinki_blk_pdl,,Osinki,wieś,s,bielski,podlaskie,,,
Luniewo_Wiski_drh_pdl,,Łuniewo-Wyszki,wieś,s,drohicki,podlaskie,,,
Chmielewo_cch_maz,,Chmielewo,wieś,s,ciechanowski,mazowieckie,mała,52.9334088030000842,20.7668457259999997
Chodkowo_wsg_maz,,Chodkowo,wieś,d,wyszogrodzki,mazowieckie,duża,52.4924014600000532,20.0300189960001198
Chodowo_lcz_lcz,Chodów,Chodowo,wieś,s,łęczycki,łęczyckie,mała,52.0075518270000146,19.0762831020000085
Lipniki_was_maz,Lipnik,Lipniki,wieś,s,wąsoski,mazowieckie,mała,53.5959667380002358,22.3182417659990939
Lisowek_Maly_grc_maz,Lisówek,Lisówek Mały,wieś,s,grójecki,mazowieckie,mała,51.8881175190000548,20.9238076920000857
Luboradz_Wielki_ndz_plc,Luberadz,Luboradz Wielki,wieś,s,niedzborski,płockie,mała,52.7573418618376166,20.4743930759798225
Zerdz_czr_maz,,Żerdź,wieś,s,czerski,mazowieckie,,,
Wola_Myszczyna_wrk_maz,,Wola Myszczyna,wieś,s,warszawski,mazowieckie,,,
Garlica_Mniejsza_prs_krk,Garliczka,Garlica Mniejsza,wieś,s,proszowicki,krakowskie,mała,50.1592057740000499,19.9097241070000557
Zalesie_Jaszczulty_prz_maz,,Zalesie Jaszczułty,wieś,s,przasnyski,mazowieckie,,,
Moczydly_Szosty_drh_pdl,,Moczydły-Szosty,wieś,s,drohicki,podlaskie,,,
Falki_Paskowieta_blk_pdl,,Falki-Paskowięta,wieś,s,bielski,podlaskie,,,
Borowskie_Stare_blk_pdl,,Borowo Stare,wieś,s,bielski,podlaskie,,,
Izdbiska_luk_lub,,Izdbiska,wieś,s,łukowski,lubelskie,,,
Chometowo_kcn_kls,Chomętowo,Chomętowo,wieś,s,kcyński,kaliskie,mała,52.9348356732160141,17.7695434571757467
Chomice_blk_pdl,Chomice,Chomice,wieś,s,bielski,podlaskie,mała,53.0665895757894077,22.7710184872465078
Lubiewo_bls_plc,Lubiejewo,Lubiewo,wieś,d,bielski,płockie,mała,52.6352601342479502,19.8749182183012358
Kosciany_blk_pdl,,Kościany,wieś,s,bielski,podlaskie,mała,52.9899037767467718,22.9764473683509642
Nasiegniewice_rdj_bkj,,Nasiegniewice,wieś,s,radziejowski,brzeskie kujawskie,,,
Drwalewo_bkj_bkj,Drwalewo,Drwalewo,wieś,s,brzeski kujawski,brzeskie kujawskie,mała,52.558638783093528,18.6654337208102987
Lubikowo_gbn_raw,Lubików,Lubikowo,wieś,s,gąbiński,rawskie,mała,52.297884839000055,19.8035242780000793
Ludynia_chc_snd,,Ludynia,wieś,s,chęciński,sandomierskie,mała,50.8428530960000415,20.1163833750000514
Lazeki_scn_maz,,Łazęki,wieś,s,wyszogrodzki,mazowieckie,mała,52.4777288640000705,20.2925078160000538
Kalisz_zm_kls_kls,Kalisz,Kalisz-zamek,zamek,k,kaliski,kaliskie,,51.7658140770118393,18.0983285565860399
Ardziankowo_bkj_bkj,Popowiczki-część,Ardziakonowo,wieś,d,brzeski kujawski,brzeskie kujawskie,mała,52.6038860103742678,18.9622365143060634
Wierzbowy_bkj_bkj,Dębice-część,Wirzbowy,osada młyńska,s,brzeski kujawski,brzeskie kujawskie,,,
Milasze_blk_pdl,,Miłosze,wieś,s,bielski,podlaskie,,,
Sych_bkj_bkj,Marysin,Szych,osada młyńska,s,brzeski kujawski,brzeskie kujawskie,,52.5407907264368319,18.845809618168726
Poroze_Puste_kls_kls,,Poroże Puste,wieś,s,kaliski,kaliskie,,,
Chrobaczna_scz_krk,Jordanów-Chrobacze,Chrobaczna,wieś,s,szczyrzycki,krakowskie,mała,49.6706061270000347,19.8478155230000795
Chroscice_wsl_snd,Chruścice,Chróścice,wieś,s,wiślicki,sandomierskie,mała,50.541646229000051,20.6120135900000463
Smosarz_Chrosciele_cch_maz,Chruściele,Smosarz-Chruściele,wieś,s,ciechanowski,mazowieckie,mała,52.854521977000033,20.7607891510000115
Chrzanowo_Bronisze_mak_maz,,Chrzanowo-Bronisze,wieś,s,makowski,mazowieckie,mała,52.8393631310000984,21.0566078990000669
Faliborzyce_szd_srd,Chwalborzyce,Faliborzyce,wieś,s,szadkowski,sieradzkie,mała,52.0621172700000443,18.853244333000081
Chwalowo_pzd_kls,Komorze Przybysławskie – część,Chwałowo,wieś,s,pyzdrski,kaliskie,mała,52.0982637497815091,17.658351609464578
Rzeszotary_Faly_sie_plc,Rzeszotary-Chwały,Rzeszotary-Fały,wieś,s,sierpecki,płockie,mała,52.8831018129984329,19.8234562526041564
Chwalecinek_ksc_pzn,Chwalęcinek,Chwalęcinko,wieś,s,kościański,poznańskie,mała,52.0262210057732304,17.3617509860546591
Chwaliszewo_pzn_pzn,Chwaliszewo (Poznań – część),Chwaliszewo,miasto,d,poznański,poznańskie,miasteczko,52.4097209749591855,16.9435805550954761
Ciepielino_ser_maz,Ciepielin,Ciepielino,wieś,d,serocki,mazowieckie,mała,52.573117996000029,20.9915747190001376
Cieszkowo_pln_plc,,Cieszkowo,wieś,d,płoński,płockie,duża,52.7101446296711202,20.238876997075927
Ciesle_rds_srd,,Cieśle,wieś,s,radomszczański,sieradzkie,mała,51.1553048960000609,19.7446822280000127
Cisowie_srd_srd,Cisów,Cisowie,wieś,d,sieradzki,sieradzkie,mała,51.9907105440000734,18.4649298420000747
Kretkowo_ksw_bkj,,Kretkowo,wieś,d,kruszwicki,brzeskie kujawskie,,,
Poswietne_ksw_bkj,,Poświętne,osada folwarczna,s,kruszwicki,brzeskie kujawskie,,52.5740278034394777,18.3030789231762654
Czajcze_nkl_kls,Czajcze,Czajcze,wieś,s,nakielski,kaliskie,duża,53.1902173163132233,17.1243400579519651
Wyszonki_Cicholas_blk_pdl,,Wyszonki-Cicholas,osada młyńska,s,bielski,podlaskie,,,
Marcinkowice_snd_snd,,Marcinkowice,wieś,d,sandomierski,sandomierskie,mała,50.7977682240000306,21.4016456070002654
Radziszewo_Sobiechowie_drh_pdl,Radziszewo-Sobiechowo,Radziszewo-Sobiechowie,wieś,s,drohicki,podlaskie,mała,52.6637903510285739,22.622574938561872
Tybory_Zulawy_drh_pdl,,Tybory-Żuławy,wieś,s,drohicki,podlaskie,,,
Kramkowka_Tatary_blk_pdl,Kramkówka Mała,Kramkówka-Tatary,wieś,s,bielski,podlaskie,mała,53.4342674484713953,22.7048972598318137
Bieniewice_kls_kls,,Bieniewice,pustka,s,kaliski,kaliskie,,,
Ciecierzyn_llw_krk,Zrębice I - część,Ciecierzyn,osada folwarczna,k,lelowski,krakowskie,,50.7424238310000391,19.3372181580000593
Trzaski_Cholewy_drh_pdl,Trzaski,Trzaski-Cholewy,wieś,s,drohicki,podlaskie,mała,52.6745621581629351,22.6062086919163185
Lapy_Rechy_blk_pdl,Rechy,Łapy-Rechy,wieś,s,bielski,podlaskie,mała,52.9792027764658116,22.9058404975236769
Rzewuski_Zale_drh_pdl,,Rzewuski-Żale,wieś,s,drohicki,podlaskie,,,
Niewodnica_Siestrzewitowskich_blk_pdl,Koplany,Niewodnica Siestrzytowskich,wieś,s,bielski,podlaskie,mała,53.0521449079651575,23.1119243886960071
Czaple_Male_kss_krk,,Czaple Małe,wieś,d,ksiąski,krakowskie,duża,50.3000771940000462,19.9586679859999911
Budzieszyn_drh_pdl,,Budzieszyn,wieś,s,drohicki,podlaskie,mała,52.2833097236045958,22.1085248132620045
Miedzyrzecz_zm_pzn_pzn,Międzyrzecz,Międzyrzecz-zamek,zamek,k,poznański,poznańskie,,52.4421163608867573,15.5677409036476213
Czelustki_Milki_prz_maz,Czaplice-Miłki,Czelustki-Miłki,wieś,s,przasnyski,mazowieckie,mała,53.1899623490000053,20.8180947690000693
Czartki_Staromice_srd_srd,Czartki Duże,Czartki Staromice,wieś,s,sieradzki,sieradzkie,mała,51.722904462000038,18.5424287780000689
Rudawa_lpn_dbr,,Rudawa,osada młyńska,s,lipnowski,ziemia dobrzyńska,,,
Wolka_ost_mln_pdl,,Wólka,wieś,s,mielnicki,podlaskie,,,
Czermino_kch_kls_kls,Czerminek,Czermino,wieś,s,kaliski,kaliskie,mała,51.8208449576091112,17.9165542832488782
Dziegciarnia_kls_kls,,Dziegciarnia,pustka,s,kaliski,kaliskie,,,
Miaczyno_zkr_maz,Miączyn,Miączyno,wieś,s,zakroczymski,mazowieckie,mała,52.4087191840000557,20.438374111000126
Seroki_lpn_dbr,,Sroki,wieś,s,lipnowski,ziemia dobrzyńska,,,
Michalowice_mch_bla_raw,,Michałowice,wieś,s,bialski,rawskie,mała,51.6356028580000483,20.7301215180001464
Mrokowo_tar_maz,Mroków - część,Mrokowo,wieś,s,tarczyński,mazowieckie,mała,52.0419513250000705,20.8600395470000954
Czepowo_Wesrednie_szd_srd,Czepów Średni,Czepowo Weśrednie,wieś,s,szadkowski,sieradzkie,mała,52.0337995260000028,18.8034225300000202
Dupki_inw_inw,,Dupki,wieś,s,inowrocławski,inowrocławskie,,,
Milewo_Lesne_blk_pdl,,Milewo Leśne,wieś,s,bielski,podlaskie,mała,53.1356283435021624,22.7021062540699639
Karpowszczyzna_blk_pdl,,Karpowszczyzna,osada folwarczna,s,bielski,podlaskie,,,
Kruszewo_Mateuszowieta_blk_pdl,,Kruszewo-Mateuszowięta,wieś,s,bielski,podlaskie,,,
Borucino_mrw_pmr,Borucino,Borucino,wieś,s,mirachowski,pomorskie,mała,54.2559666759263592,17.9703122518253195
Czerniewo_liw_maz,Czerniejew,Czerniewo,wieś,s,liwski,mazowieckie,mała,52.1199320660001604,22.0741073680004654
Nieradowo_cch_maz,,Nieradowo,wieś,s,ciechanowski,mazowieckie,mała,52.8601514490000568,20.8384299119999916
Ninkow_rdm_snd,,Ninków,wieś,s,radomski,sandomierskie,mała,51.3000644140000688,20.7305774710000961
Nosarzewo_I_mla_plc,"Nosarzewo Borowe, Nosarzewo Polne",Nosarzewo I,wieś,s,mławski,płockie,mała,53.0763230836435582,20.5206231394464851
Nowa_Wies_Czluchowska_czl_pmr,Nowa Wieś,Nowa Wieś,wieś,k,człuchowski,pomorskie,mała,53.8445662233305242,17.3096193993305789
Mostki_sch_raw,Mostki Nowe,Mostki,wieś,s,sochaczewski,rawskie,mała,52.2518563850000248,20.3173220070000795
Ochenki_Stara_Wies_roz_maz,Ochenki Stare,Ochenki-Stara Wieś,wieś,s,rożański,mazowieckie,mała,52.9717849080000533,21.3698228150000915
Olszany_sdc_krk,Olszana,Olszany,wieś,k,sądecki,krakowskie,mała,49.5659462550000072,20.5220298240000574
Lubranski_Mlyn_bkj_bkj,Górniak,Lubrański Młyn,osada młyńska,s,brzeski kujawski,brzeskie kujawskie,,52.5417021136378324,18.8571258528364645
Slomkowo_bkj_bkj,,Słonkowo,pustka,s,brzeski kujawski,brzeskie kujawskie,,,
Chwalencice_kbl_pzd_kls,,Chwalenice,wieś,s,pyzdrski,kaliskie,,,
Umianowice_wsl_snd,,Umianowice,wieś,d,wiślicki,sandomierskie,mała,50.5767781450000626,20.526354051000105
Cwiklino_Male_scn_maz,Ćwiklinek,Ćwiklino Małe,wieś,s,sąchocki,mazowieckie,mała,52.6702783070000393,20.3646663830000314
Boguski_drh_pdl,,Boguski,wieś,s,drohicki,podlaskie,mała,52.4017647074622275,22.7659434502920242
Zaluskowo_bkj_bkj,,Załuskowo,osada folwarczna,s,brzeski kujawski,brzeskie kujawskie,,52.743484813566667,18.6984205169414359
Lopienie_Grochy_blk_pdl,,Łopienie-Grochy,wieś,s,bielski,podlaskie,duża,52.873336824083772,22.7246271991605724
Daleszowice_opc_snd,Daleszewice,Daleszowice,wieś,s,opoczyński,sandomierskie,mała,51.3088778990000165,20.1425090440000218
Skubniewo_liw_maz,,Skubniewo,wieś,s,liwski,mazowieckie,mała,52.2680594620001315,22.0245919740003586
Prusocino_Strzegowskie_szr_plc,Prusocin,Prusocino Strzegowskie,wieś,s,szreński,płockie,mała,52.9061000156033785,20.2558922493279994
Denkow_chc_snd,Danków,Denków,wieś,d,chęciński,sandomierskie,mała,50.872984091000049,19.9244301980000635
Kokoszyce_rdj_bkj,,Kokoszyce,wieś,k,radziejowski,brzeskie kujawskie,,,
Chrzan_rdj_bkj,,Chrzan,osada młyńska,s,radziejowski,brzeskie kujawskie,,,
Dabek_rds_srd,ironworks,Dąbek,wieś,s,radomszczański,sieradzkie,mała,50.8399068660000069,19.4469433660000064
Serkowo_prd_bkj,Szczerkowo,Serkowo,wieś,s,przedecki,brzeskie kujawskie,mała,52.3675840121939444,19.0392279769607597
Chorki_blk_pdl,Piećki,Chorki,wieś,s,bielski,podlaskie,mała,53.0117803008308996,23.0020419127394327
Damierowo_gar_maz,Damirów,Damierowo,wieś,k,garwoliński,mazowieckie,mała,51.7800079860000295,21.4515434020002047
Zarzecze_kls_kls,,Zarzecze,osada folwarczna,s,kaliski,kaliskie,,,
Losczica_kcn_kls,,Łoscica,wieś,s,kcyński,kaliskie,,,
Przybyslawice_srw_prs_krk,,Przybysławice,wieś,s,proszowicki,krakowskie,mała,50.3774861370000551,19.8842826410000058
Radlin_chc_snd,,Radlin,wieś,d,chęciński,sandomierskie,mała,50.8607453080000411,20.7536274940000673
Radomysl_Stara_luk_lub,Radomyśl,Radomyśl Stara,wieś,s,łukowski,lubelskie,mała,52.0311040510002698,22.3618310880008515
Rajkowy_tcz_pmr,Rajkowy,Rajkowy,wieś,k,tczewski,pomorskie,duża,53.9650949944684868,18.7055571837852987
Rzuchow_rdm_snd,Rdzuchów,Rzuchów,wieś,s,radomski,sandomierskie,mała,51.4524121830000141,20.7106269820000684
Darszyce_scz_krk,Biskupice - część,Darszyce,wieś,d,szczyrzycki,krakowskie,mała,49.9573899600000857,20.1602453350000985
Sarnowo_drh_pdl,,Sarnowo,wieś,s,drohicki,podlaskie,mała,52.3274534012654939,22.5833365552921208
Rekszowice_llw_krk, ,Rększowice,wieś,k,lelowski,krakowskie,mała,50.7026392430000641,19.0334085760000349
Rogoznik_swr_swr,,Rogoźnik,wieś,s,księstwo siewierskie,księstwo siewierskie,mała,50.3912153870000381,19.044068562000092
Rokitno_cgw_llw_krk,Rokitno Szlacheckie,Rokitno,wieś,s,lelowski,krakowskie,mała,50.4309257980000112,19.4363287370000855
Rzeniszow_swr_swr,,Rzeniszów,wieś,d,księstwo siewierskie,księstwo siewierskie,mała,50.5733393320000246,19.1649927700000013
Sacin_bla_raw,,Sacin,wieś,s,bialski,rawskie,mała,51.6517001420000454,20.570481931000046
Wszeradzice_Blizsze_rdm_snd,Seredzice Dworskie,Wszeradzice Bliższe,wieś,d,radomski,sandomierskie,mała,51.1514312210000313,21.2065005230001802
Przechowski_Mlyn_swc_pmr,Świecie-część,Przechowski Młyn,osada młyńska,k,świecki,pomorskie,,53.4016557751150245,18.407246892309491
Seroczyno_m_gar_maz,Seroczyn - część,Seroczyno,miasto,s,garwoliński,mazowieckie,miasteczko,52.0094902040001656,21.9205708020003556
Dabrowsk_Sedek_bls_plc,Sędek,Dąbrowsk-Sędek,wieś,s,bielski,płockie,mała,52.6505492052817772,19.9447997321220853
Siedlec_grc_maz,Sielec,Siedlec,wieś,s,grójecki,mazowieckie,mała,51.7139319850000021,20.797080729000065
Sienica_gar_maz,Siennica,Sienica,miasto,s,garwoliński,mazowieckie,miasteczko,52.0890042390000971,21.619264427000239
Skarboszewo_scn_maz,,Skarboszewo,wieś,s,sąchocki,mazowieckie,mała,52.5271490240000247,20.3269232670000477
Slawecino_szr_plc,Sławęcin,Sławęcino,wieś,s,szreński,płockie,mała,52.9634900433309994,20.0056068589695357
Sowokleszcz_zkr_maz,Soboklęszcz,Sowoklęszcz,wieś,d,zakroczymski,mazowieckie,duża,52.6019080060001158,20.5170798680000459
Sokoly_blk_pdl,Sokoły,Sokoły,wieś,s,bielski,podlaskie,mała,52.9925598601781118,22.6994175256564006
Gulczewo_Czuprachtow_gzn_kls,Gulczewo – część,Gulczewo Czuprachtowe,wieś,s,gnieźnieński,kaliskie,,,
Dabrowica_wrs_maz,,Dąbrowica,wieś,s,warszawski,mazowieckie,mała,52.3551258890000568,21.4451417130000834
Mikolajewicze_Wezikowe_gzn_kls,Mikołajewice – część,Mikołajewice Wężykowe,wieś,s,gnieźnieński,kaliskie,,,
Gurbicze_blk_pdl,Gurbicze,Gurbicze,wieś,k,bielski,podlaskie,mała,53.4819125557003403,22.8918248399388169
Walendowice_kls_kls,,Walendowice,pustka,s,kaliski,kaliskie,,,
Kotarby_Male_kls_kls,,Kotarby Małe,wieś,s,kaliski,kaliskie,,,
Sobotka_Wies_kls_kls,,Sobótka,wieś,s,kaliski,kaliskie,,,
Wilkowo_inw_inw,,Wilkowo,osada folwarczna,d,inowrocławski,inowrocławskie,,,
Kepadly_orl_lcz,,Kępadły,wieś,s,orłowski,łęczyckie,mała,52.1288538830000263,19.5897869230000943
Dabrowka_Nagorna_rdm_snd,,Dąbrówka Nagórna,wieś,s,radomski,sandomierskie,mała,51.4519078530000868,21.0896915360000712
Grochowiska_Ledwiczny_bkj_bkj,,Lędwiczyny,wieś,k,brzeski kujawski,brzeskie kujawskie,,,
Czerniakowo_lpn_dbr,Czernikowo,Czernikowo,wieś,d,lipnowski,ziemia dobrzyńska,duża,52.944807995582444,18.9425790557988734
Przemet_op_ksc_pzn,Przemęt,Przemęt-opactwo,opactwo,d,kościański,poznańskie,,52.0118268443014387,16.2865680229925225
Bachowice_plz_snd,Dębina Łętowska,Bachowice,wieś,d,pilzneński,sandomierskie,mała,49.9783079180000058,20.8427742650001164
Wola_Debna_grc_maz,Dębnowola,Wola Dębna,wieś,d,grójecki,mazowieckie,mała,51.6516038660000518,20.8044703370000441
Dramino_sie_plc,Dębowo,Dramino,wieś,s,sierpecki,płockie,mała,52.7634422483611942,19.727881152893108
Dlugie_rdm_snd,,Długie,wieś,s,radomski,sandomierskie,mała,51.5363600320000401,20.7431028430000417
Stanislawie_tcz_pmr,Stanisławie,Stanisławie,wieś,s,tczewski,pomorskie,mała,54.0944599705436318,18.7000517011395146
Stara_Lomza_lom_maz,Łomża Stara,Stara Łomża,wieś,ks,łomżyński,mazowieckie,duża,53.1507282120001321,22.1129377969997982
Krobia_zm_ksc_pzn,Krobia,Krobia-zamek,zamek,d,kościański,poznańskie,,51.7706665278397367,16.991990897536116
Szczeczno_wsl_snd,Szczecno,Szczeczno,wieś,s,wiślicki,sandomierskie,mała,50.732315680000049,20.7601695170000902
Kaluszyno_Szymbory_liw_maz,Szembory,Kałuszyno-Szymbory,wieś,s,liwski,mazowieckie,mała,52.2551846370001059,21.7978080990002319
Szlachtowa_sdc_krk,Szczawnica-Szlachtowa,Szlachtowa,wieś,s,sądecki,krakowskie,mała,49.4138511070000206,20.5271218710000944
Dluzniewo_Wielkie_bls_plc,Dłużniewo Duże,Dłużniewo Wielkie,wieś,s,bielski,płockie,mała,52.6703564334028442,20.0811078495478021
Dobra_wsg_maz,,Dobra,wieś,d,wyszogrodzki,mazowieckie,duża,52.5211325280000665,20.1030942170000664
Dobranowice_scz_krk,Dobranowice - część,Dobranowice,wieś,d,szczyrzycki,krakowskie,mała,49.9436748280000415,20.1119582900001177
Slasy_Lipno_zmb_maz,Szlasy-Lipno,Ślasy-Lipno,wieś,s,zambrowski,mazowieckie,mała,53.0643856350002778,22.406018916999507
Sulbory_wsg_maz,Szulbory,Sulbory,wieś,s,wyszogrodzki,mazowieckie,mała,52.6003874990000782,20.054731881000091
Sulborze_Male_Koty_nur_maz,Szulborze Koty,Sulborze Małe-Koty,wieś,s,nurski,mazowieckie,mała,52.7637086880001789,22.2204222840000085
Chwalibogi_zkr_maz,Falibogi Borowe,Chwalibogi,wieś,s,zakroczymski,mazowieckie,mała,52.5086428360000141,20.6312524620000737
Swidry_Dobrzyca_Mikucino_was_maz,Świdry-Dobrzyce,Świdry-Dobrzyca-Mikucino,wieś,s,wąsoski,mazowieckie,mała,53.4624370260001669,22.1964937509993803
Wola_Nowomiescka_bla_raw,Świdrygały,Wola Nowomiescka,wieś,s,bialski,rawskie,mała,51.6551923170000578,20.601105162000092
Swierczyno_Male_bls_plc,Świerczynek,Świerczyno Małe,wieś,s,bielski,płockie,mała,52.7258790809549822,19.9631125621951782
Truszki_wiz_maz,,Truszki,wieś,s,wiski,mazowieckie,mała,53.1713075630002407,22.2460923509995681
Trzemeszno_op_gzn_kls,Trzemeszno,Trzemeszno-opactwo,opactwo,d,gnieźnieński,kaliskie,,52.5595258380863513,17.8171611006279029
Truszki_Zalesie_kol_maz,,Truszki-Zalesie,wieś,s,kolneński,mazowieckie,mała,53.5076492490001598,22.0566020089995973
Trynosy_osw_maz,,Trynosy,wieś,s,ostrowski,mazowieckie,mała,52.8772305320000697,21.7431160340000709
Wieprzki_snd_snd,Wierzbiny,Wieprzki,wieś,d,sandomierski,sandomierskie,mała,50.7083057570000904,21.6523716440005778
Czarnkow_zm_pzn_pzn,Czarnków,Czarnków-zamek,zamek,s,poznański,poznańskie,,52.9082597843344402,16.5727925817066861
Tuczno_zm_wlc_pzn,Tuczno,Tuczno-zamek,zamek,s,wałecki,poznańskie,,53.1921480777693034,16.1468123371865993
Multowice_snd_snd,,Multowice,wieś,s,sandomierski,sandomierskie,mała,50.8237216480000598,21.6635051310005444
Drzewica_zm_opc_snd,,Drzewica-zamek,zamek,s,opoczyński,sandomierskie,,51.445259518461512,20.4851820509526803
Zamyslowo_kcn_kls,,Zamysłowo,wieś,s,kcyński,kaliskie,mała,52.7674302116011162,17.3326832459377087
Wietrzno_bck_krk,Wietrzno - część,Wietrzno,wieś,d,biecki,krakowskie,mała,49.6036877100000595,21.7088422310010536
Wola_Serocka_gar_maz,,Wola Serocka,wieś,s,garwoliński,mazowieckie,mała,52.0327851570001272,21.9627769250004548
Szczygielkowa_Wola_snd_snd,Wola Szczygiełkowa,Szczygiełkowa Wola,wieś,d,sandomierski,sandomierskie,mała,50.8965892190000631,20.9690600690001254
Wolica_wsl_snd,,Wolica,wieś,s,wiślicki,sandomierskie,mała,50.4530658690000351,21.1810485030001843
Kruszwica_zm_ksw_bkj,Kruszwica,Kruszwica-zamek,zamek,k,kruszwicki,brzeskie kujawskie,,52.6714750585816276,18.3121990804155352
Radziejow_zm_rdj_bkj,Radziejów,Radziejów-zamek,zamek,k,radziejowski,brzeskie kujawskie,,52.6283826677247646,18.5401825788590386
Ciechanowiec_zm_drh_pdl,Ciechanowiec,Ciechanowiec-zamek,zamek,s,drohicki,podlaskie,,52.6764041403808321,22.4855748883046225
Zator_msz_raw,,Zator,wieś,k,mszczonowski,rawskie,duża,51.9649575720000811,20.3735561460000945
Zlotopolice_Gorne_zkr_maz,Złotopolice - część,Złotopolice Górne,wieś,s,zakroczymski,mazowieckie,mała,52.4676376620000582,20.5037414870001058
Zyndranowa_bck_krk,,Zyndranowa,wieś,s,biecki,krakowskie,duża,49.4319789530000619,21.7167677800011631
Jakubek_opc_snd,Duraczów,Jakubek,osada kuźnicza,s,opoczyński,sandomierskie,,51.1049929180000859,20.5145714870001008
Tykocin_zm_blk_pdl,Tykocin,Tykocin-zamek,zamek,k,bielski,podlaskie,,53.2085190661440137,22.7600544185618361
Leki_Dolne_plz_snd,,Łęki Dolne,wieś,s,pilzneński,sandomierskie,duża,49.9763419010000334,21.2470780130002765
Socha_gos_raw,,Socha,osada młyńska,d,gostyniński,rawskie,,52.5255151970000327,19.5499874420000594
Ksieginki_dls_ksc_pzn,Księginki,Księginki,wieś,d,kościański,poznańskie,mała,51.963862637490486,17.076444263200969
Ksiezy_Mlyn_szd_srd,Księże Młyny,Księży Młyn,osada młyńska,d,szadkowski,sieradzkie,,51.8836962530000463,18.7461768330000744
Kuczyny_lcz_lcz,Kuciny,Kuczyny,wieś,s,łęczycki,łęczyckie,mała,51.8645978450000555,19.1227155740000683
Zagurowko_bkj_bkj,,Zagarówko,osada folwarczna,s,brzeski kujawski,brzeskie kujawskie,,52.6510146787521194,18.7539579559489624
Biernaty_Rudnik_mln_pdl,Rudnik,Biernaty-Rudniki,wieś,s,mielnicki,podlaskie,mała,52.1963006851176203,22.6689715590377183
Inowlodz_zm_brz_lcz,Inowłódz - część,Inowłodz-zamek,zamek,k,brzeziński,łęczyckie,,51.5242458246300572,20.2135363727315465
Czyzow_zm_snd_snd,"Czyżów Plebański, Czyżów Szlachecki",Czyżów-zamek,zamek,s,sandomierski,sandomierskie,,50.8197812815667049,21.7786456138434126
Choszczowka_gar_maz,,Choszczówka,wieś,k,garwoliński,mazowieckie,mała,52.1964967310000816,21.5113008220002051
Mielec_zm_snd_snd,,Mielec-zamek,zamek,s,sandomierski,sandomierskie,,50.2873321099543205,21.4084411154023364
Chrostowo_Wielkie_prz_maz,,Chrostowo Wielkie,wieś,s,przasnyski,mazowieckie,mała,53.0028072520000677,20.7176560830000263
Domaniewo_bln_maz,Domaniew,Domaniewo,wieś,d,błoński,mazowieckie,mała,52.1888105080000742,20.7552946810000947
Kurow_wln_srd,,Kurów,wieś,m,wieluński,sieradzkie,mała,51.2233950660000588,18.4883723940000309
Mosaki_Laczka_prz_maz,Kurówko,Mosaki-Łączka,wieś,s,przasnyski,mazowieckie,mała,52.9035488930000568,20.9319459820000979
Kozie_wsl_snd,Kuzie,Kozie,wieś,k,wiślicki,sandomierskie,mała,50.2406579960000599,20.8925713740001413
Hamer_swc_pmr,Lnianek,Suchy,osada młyńska,k,świecki,pomorskie,,53.5538229349050781,18.184194185545131
Dobrzyszewo_grc_maz,Dobryszew,Dobrzyszewo,wieś,s,grójecki,mazowieckie,mała,51.855281318000003,20.8469111250000907
Jaliny_gar_maz,Laliny,Jaliny,wieś,k,garwoliński,mazowieckie,mała,51.9719889850001309,21.8274321320003786
Druzbin_szd_srd,,Drużbin,wieś,s,szadkowski,sieradzkie,mała,51.8350182430000217,18.8115124090000272
Maslanka_kwl_bkj,Maślanka,Motorag,osada młyńska,s,kowalski,brzeskie kujawskie,,52.4134983041678453,19.1541826479832338
Grodztwo_kwl_bkj,Grodztwo,Grodzkie,osada folwarczna,k,kowalski,brzeskie kujawskie,,52.5373306996653042,19.1670917441429403
Druszkow_Pusty_sdc_krk,Drużków Pusty,Druszków Pusty,wieś,s,sądecki,krakowskie,mała,49.7895917960000318,20.6015990000001459
Druzikowa_llw_krk,Drużykowa,Druzikowa,wieś,s,lelowski,krakowskie,mała,50.6834342000001001,19.8478327230000673
Leziona_kls_kls,Leziona,Leziona,wieś,s,kaliski,kaliskie,mała,51.6555976483651165,18.0741735297873305
Lezenice_wrk_maz,,Leżenice,wieś,s,warecki,mazowieckie,mała,51.6295139040000493,21.3330789350001702
Luciazna_brz_lcz,Liciążna,Luciązna,wieś,k,brzeziński,łęczyckie,mała,51.5530169360000698,20.2594613420000833
Lubsin_rdj_bkj,Lubsin,Lubsino,wieś,s,radziejowski,brzeskie kujawskie,mała,52.5210610589464508,18.5691313723276039
Bodzaporowice_Male_gzn_kls,,Bodzaporowice Małe,pustka,s,gnieźnieński,kaliskie,,,
Wyssino_zm_knn_kls,Wyszyna,Wyszyno-zamek,zamek,s,koniński,kaliskie,,52.1406361324147483,18.3942937492510339
Laznino_orl_lcz,Łazin,Łaźnino,wieś,s,orłowski,łęczyckie,mała,52.1027230230000598,19.5532974010000942
Lakta_Nowa_scz_krk,Łąkta Dolna,Łąkta Nowa,wieś,s,szczyrzycki,krakowskie,mała,49.8386695170000067,20.4109840340000268
Lezki_lcz_lcz,,Łężki,wieś,s,łęczycki,łęczyckie,mała,51.8761460380000372,18.9900346450000583
Duczymino_Nowe_prz_maz,,Duczymino Nowe,wieś,s,przasnyski,mazowieckie,mała,53.2840273030000233,20.8097688310000386
Dziedno_nkl_kls,Dziedno,Dziedno,wieś,d,nakielski,kaliskie,duża,53.4200628713726431,17.7405985583608228
Dzwonek_osw_maz,,Dzwonek,wieś,s,ostrowski,mazowieckie,mała,52.9619747000000416,21.7137402540000295
Krzykosz_bkj_bkj,,Krzykosz,wieś,s,brzeski kujawski,brzeskie kujawskie,,,
Bielawy_nkl_kls,Bielawy,Bielawski,osada młyńska,k,nakielski,kaliskie,,53.1331764824683717,17.5526793912070858
Rudki_nkl_nkl_kls,Nakło-Rudki,Rudki,osada młyńska,k,nakielski,kaliskie,,53.1423914139626703,17.6200064835880426
Zazdrosc_dbr_dbr,,Zazdrość,osada młyńska,s,dobrzyński,ziemia dobrzyńska,,,
Krajewice_bkj_bkj,,Krajewice,wieś,s,brzeski kujawski,brzeskie kujawskie,,,
Poraza_bkj_bkj,Poraza,Poraza,osada młyńska,d,brzeski kujawski,brzeskie kujawskie,,52.6463888739156118,18.992929760551192
Lochow_Wielki_raw_raw,Łochów,Łochów Wielki,wieś,s,rawski,rawskie,mała,51.7382377470000705,20.1051144300000288
Losiniec_srd_srd,Łosieniec,Łosiniec,wieś,s,sieradzki,sieradzkie,mała,51.6054949829999998,18.6550223190000608
Lubnica_ksc_pzn,Łubnica,Łubnica,wieś,d,kościański,poznańskie,duża,52.1521276197222647,16.3724330660009443
Macierzysz_Wielki_wrs_maz,Macierzysz,Macierzysz Wielki,wieś,s,warszawski,mazowieckie,mała,52.225632891000032,20.849731777000045
Dzieczewo_rac_plc,,Dzieczewo,wieś,s,raciąski,płockie,mała,52.924949464846037,20.0336160822166143
Luszowice_prs_krk,,Luszowice,wieś,d,proszowicki,krakowskie,mała,50.1765247920000661,19.4026480070000495
Czarkowki_Chodaki_drh_pdl,,Czarkówka-Chudaki,wieś,s,drohicki,podlaskie,,,
Winnica_Mala_dbr_dbr,,Winnica Mała,wieś,s,dobrzyński,ziemia dobrzyńska,,,
Dzwierzno_nkl_kls,Dźwierszno Wielkie,Dźwierszno,wieś,s,nakielski,kaliskie,mała,53.3007227749243384,17.3550806209255271
Czeplinski_bkj_bkj,,Ciepliński Młyn,osada młyńska,s,brzeski kujawski,brzeskie kujawskie,,,
Tornuczka_bkj_bkj,,Toruńczka,osada młyńska,s,brzeski kujawski,brzeskie kujawskie,,,
Elzanowo_chl_chl,Elzanowo,Elżanowo,wieś,s,chełmiński,chełmińskie,mała,53.1318241865016603,18.8492147627513944
Kielczew_inw_inw,,Kiełczew,osada folwarczna,s,inowrocławski,inowrocławskie,,,
Arciszewo_Dlugoszowe_bkj_bkj,Arciszewo-część,Erciszewo Długoszowe,wieś,s,brzeski kujawski lub przedecki,brzeskie kujawskie,mała,52.4528275440918463,18.8794572951863628
Gardlino_Racibory_prz_maz,Garlino-Racibory,Gardlino-Racibory,wieś,s,przasnyski,mazowieckie,mała,53.0934752110000687,20.5654664890000767
Klobski_Mlyn_bkj_bkj,Kłobia-część,Kłobski Młyn,osada młyńska,k,brzeski kujawski,brzeskie kujawskie,,52.5248818053978539,18.9015095398883162
Zarnowiec_o_pck_pmr,,Żarnowiec-opactwo,opactwo,d,pucki,pomorskie,,54.7938654396717411,18.0917621005091149
Pelplin_o_tcz_pmr,,Pelplin-opactwo,opactwo,d,tczewski,pomorskie,,53.9300528747295687,18.7028961664733337
Zukowo_o_gdn_pmr,,Żuków-opactwo,opactwo,d,gdański,pomorskie,,54.3426867381073819,18.3701360380982379
Znamirowice_sdc_krk,,Znamirowice,wieś,s,sądecki,krakowskie,mała,49.7298435290000569,20.68635540200005
Oliwa_o_gdn_pmr,,Oliwa-opactwo,opactwo,d,gdański,pomorskie,,54.4147919329068017,18.5552102678009199
Kartuzy_o_gdn_pmr,,Kartuzy-opactwo,opactwo,d,gdański,pomorskie,,54.3372489624342165,18.20854212744511
Ziewanice_Gawronki_orl_lcz,Gawronki,Ziewanice-Gawronki,wieś,s,orłowski,łęczyckie,mała,52.0095725270000386,19.6786040150001007
Gasiorowo_nur_maz,,Gąsiorowo,wieś,s,nurski,mazowieckie,mała,52.7054397650001505,22.156288920000005
Zabino_Gasiory_mla_plc,,Żabino-Gąsiory,wieś,s,mławski,płockie,mała,53.2577194645817968,20.5084065590157039
Chodorowa_Wola_lub_lub,Majdan Krasieniński,Chodorowa Wola,wieś,s,lubelski,lubelskie,mała,51.346383682000365,22.4845332770022921
Pyzdry_zm_pzd_kls,Pyzdry,Pyzdry-zamek,zamek,k,pyzdrski,kaliskie,,52.1704741256096156,17.6938734408132632
Mieroslawicze_gzn_kls,Mirosławice,Mirosławice,wieś,s,gnieźnieński,kaliskie,mała,52.5883531710395786,18.2693722519642314
Niemierzyce_ksc_pzn,Niemierzyce,Niemierzyce,wieś,s,kościański,poznańskie,mała,52.2513332958901699,16.5287222988805595
Niesulowo_prz_maz,,Niesułowo,wieś,s,przasnyski,mazowieckie,mała,53.0622584940000195,21.275553752999997
Giecz_pzd_kls,Giecz,Giecz,wieś,d,pyzdrski,kaliskie,mała,52.3197388437619182,17.3709992282760659
Zadusniki_bkj_bkj,Borzymie-część,Zaduszniki,osada folwarczna,s,brzeski kujawski,brzeskie kujawskie,,,
Gielczyno_lom_maz,Giełczyn,Giełczyno,wieś,k,łomżyński,mazowieckie,duża,53.1209656650002131,22.0746386999997242
Niszczewy_bkj_bkj,Niszczewy,Nieszczewy,wieś,s,brzeski kujawski,brzeskie kujawskie,mała,52.7842361437164129,18.8237380785439825
Szczepkowo_Borowe_mla_plc,,Szczepkowo Borowe,wieś,s,mławski,płockie,mała,53.3018140428839473,20.5826109376447768
Tomczyce_orl_lcz,,Tomczyce,wieś,s,orłowski,łęczyckie,mała,52.1626969810000674,19.6423828910001035
Tonowo_kcn_kls,Tonowo,Tonowo,wieś,s,kcyński,kaliskie,mała,52.7783292157508228,17.5850754100943547
Upuszczow_srd_srd,Upuszczew,Upuszczów,wieś,s,sieradzki,sieradzkie,mała,51.67925880100006,18.5356004770000986
Zielonki_mlb_mlb,Zielonki,Grünfelde,wieś,s,malborski,malborskie,mała,53.9765320354066631,19.1629459023106499
Borkowo_tcz_pmr,Borkowo,Borkowo,osada folwarczna,d,tczewski,pomorskie,,53.8365239290167921,18.6363395146759494
Borowe_Nowe_szr_plc,Borowe,Borowe Nowe,wieś,s,szreński,płockie,mała,53.1067167810547645,20.2901557663756407
Brod_chc_snd,Brody,Bród,wieś,s,chęciński,sandomierskie,mała,50.6840735920000753,20.6921811350000731
Brody_Male_wsg_maz,,Brody Małe,wieś,s,wyszogrodzki,mazowieckie,mała,52.4432806710000676,20.0831168320000764
Brodziecino_cch_maz,Brodzięcin,Brodzięcino,wieś,s,ciechanowski,mazowieckie,mała,52.7552437150000557,20.5961805120000463
Opalenica_zm_ksc_pzn,Opalenica,Opalenica,zamek,s,kościański,poznańskie,,52.3051414736967146,16.4174538039285629
Szamotuly_zm_2_pzn_pzn,Szamotuły,Szamotuły-zamek 2,zamek,s,poznański,poznańskie,,52.6057146362574812,16.5861485110364484
Bromierz_Maly_bls_plc,Bromierzyk,Bromierz Mały,wieś,s,bielski,płockie,mała,52.6611785650389024,20.0389511133034262
Bronka_blk_pdl,Bronka,Bronka,wieś,d,bielski,podlaskie,mała,52.7532736165235505,22.9272778460787592
Brzozogaj_gzn_kls,Brzozogaj,Brzozogaj,wieś,s,gnieźnieński,kaliskie,mała,52.5932665231653331,17.4793494472227096
Gizowa_snd_snd,Gizowa,Giżowa,wieś,s,sandomierski,sandomierskie,mała,50.3723212790000758,21.3361713780003761
Gaska_bkj_bkj,,Gąska,osada młyńska,s,brzeski kujawski,brzeskie kujawskie,,,
Robakowo_gzn_kls,,Robakowo,pustka,d,gnieźnieński,kaliskie,,52.5551720437612602,17.9732343756550463
Glinice_wrz_rdm_snd,,Glinice,wieś,s,radomski,sandomierskie,mała,51.4981487310000361,20.8512234590000887
Rudny_gzn_kls,Rudki,Rudny Młyn,osada młyńska,d,gnieźnieński,kaliskie,,52.555558079588053,17.7957626591929383
Chelchy_Ilowo_prz_maz,Chełchy Iłowe,Chełchy-Iłowo,wieś,s,przasnyski,mazowieckie,mała,52.8817417030000385,20.9565229780000237
Chmielnik_lub_lub,,Chmielnik,wieś,s,lubelski,lubelskie,mała,51.2016959720001523,22.1976996090014573
Chmielonek_prz_maz,,Chmielonek,wieś,s,przasnyski,mazowieckie,mała,53.1587864700000665,20.7532222400000883
Chochorowice_sdc_krk,,Chochorowice,wieś,d,sądecki,krakowskie,mała,49.6093595210000586,20.6154593610000454
Kocieszewo_zkr_maz,Chociszewo,Kocieszewo,wieś,s,zakroczymski,mazowieckie,mała,52.4180086410000712,20.3885614210000661
Wawolnica_zm_lub_lub,,Wąwolnica-zamek,zamek,k,lubelski,lubelskie,,51.2920557354057109,22.1557310272185433
Choragwica_scz_krk,,Chorągwica,wieś,s,szczyrzycki,krakowskie,mała,49.9599979310000464,20.0841542880000716
Chrystkowo_swc_pmr,Chrystkowo,Krostkowo,wieś,s,świecki,pomorskie,mała,53.3206121386351271,18.3167730791630277
Chrzanowo_Stare_rdz_maz,Chrzanowo Włościańskie,Chrzanowo Stare,wieś,s,radziłowski,mazowieckie,mała,53.385987067000265,22.3466538329992375
Chrzastowko_czl_pmr,Chrząstówko,Krystfeldzki Młyn,osada młyńska,k,człuchowski,pomorskie,,53.623166947503428,17.257552784513738
Chrzaszczewek_Maly_bla_raw,Chrząszczewek,Chrząszczewek Mały,wieś,s,bialski,rawskie,mała,51.8236965020000753,20.4288770230000338
Cmolas_snd_snd,,Cmolas,wieś,s,sandomierski,sandomierskie,duża,50.2937060960000792,21.7417260720008976
Cybulino_Porzeczkowskie_wsg_maz,Cybulin - część,Cybulino Przeczkowskie,wieś,s,wyszogrodzki,mazowieckie,mała,52.4812373560000509,20.0633460410000772
Czarnocino_kol_maz,Czarnocin,Czarnocino,wieś,k,kolneński,mazowieckie,duża,53.2094810690001339,22.0801521389997255
Lesnowo_mlb_mlb,Cyganek,Reimerswalde,wieś,k,malborski,malborskie,mała,54.2261989331679075,19.0818094507316296
Klonowa_kls_kls,Dobrzyca – część,Klonowa,wieś,s,kaliski,kaliskie,mała,51.8624422638578579,17.5978582282535072
Wzgorz_prz_maz,,Wzgórz,wieś,s,przasnyski,mazowieckie,,,
Glowczyno_wsg_maz,Główczyn,Główczyno,wieś,s,wyszogrodzki,mazowieckie,mała,52.4783691270000574,20.1940182940000774
Czarnocin_ptr_srd,,Czarnocin,wieś,d,piotrkowski,sieradzkie,duża,51.5965379520000482,19.6826475840000299
Czarnomino_Szlacheckie_bls_plc,Czarnominek,Czarnomino Szlacheckie,wieś,s,bielski,płockie,mała,52.7028601175005349,19.671475906188288
Drogoszewo_kam_maz,,Drogoszewo,wieś,s,kamieniecki,mazowieckie,mała,52.5651837580000461,21.4355578770000506
Dzieciarty_ptr_srd,Dzięciary,Dzieciarty,osada folwarczna,s,piotrkowski,sieradzkie,,51.2975825970000443,19.6178762640001061
Szolajdy_Kujawkowe_lcz_lcz,,Szołajdy Kujawkowe,wieś,s,łęczycki,łęczyckie,mała,52.2504227660000495,19.0518280120000405
Dzwigorzow_srd_srd,Dzigorzew,Dźwigorzów,wieś,k,sieradzki,sieradzkie,mała,51.6155385000000706,18.7163218050000637
Mala_Wies_nkl_kls,Dźwierszno Małe,Mała Wieś,wieś,s,nakielski,kaliskie,mała,53.2990669439846201,17.3466181924234135
Gaczkowo_nur_maz,,Gaczkowo,wieś,d,nurski,mazowieckie,mała,52.7678277820001469,22.0783243860000482
Gadomiec_Milocieta_prz_maz,,Gadomiec-Miłocięta,wieś,s,przasnyski,mazowieckie,mała,53.2154694370000882,20.808568942000111
Galczyce_rdj_bkj,Galczyce,Galczyce Wielkie,wieś,s,radziejowski,brzeskie kujawskie,mała,52.469553969790752,18.5544634700586961
Gadki_tlc_pzn_pzn,Gądki,Gądki,wieś,s,poznański,poznańskie,mała,52.3093148988239989,17.0464731595070482
Jarzmanicha_stz_snd,Germanicha,Jarzmanicha,wieś,s,stężycki,sandomierskie,mała,51.8323490200001373,22.0201722620006528
Gezyn_swr_swr,,Gęzyn,wieś,d,księstwo siewierskie,księstwo siewierskie,mała,50.6392504020000942,19.2057767320000714
Gielniow_opc_snd,,Gielniów,wieś,s,opoczyński,sandomierskie,duża,51.3990872550000546,20.4750801790000097
Gielczew_krz_lub_lub,,Giełczew,wieś,s,lubelski,lubelskie,duża,50.9570465680005356,22.6786344360044083
Giemlice_gdn_pmr,Giemlice,Giemlice,wieś,d,gdański,pomorskie,mała,54.2089958371719121,18.8471557330064101
Gieraszowice_snd_snd,,Gieraszowice,wieś,s,sandomierski,sandomierskie,mała,50.601656675000072,21.4478405210003622
Czaple_Wielkie_kss_krk,,Czaple Wielkie,wieś,s,ksiąski,krakowskie,mała,50.2970314840000867,19.9885540170000588
Gniewkowo_wsg_maz,,Gniewkowo,wieś,s,wyszogrodzki,mazowieckie,mała,52.5578622070000918,20.125795777000036
Gluchow_glc_srd_srd,,Głuchów,wieś,s,sieradzki,sieradzkie,mała,51.8617352280000432,18.5692730200000611
Glowaczowa_plz_snd,,Głowaczowa,wieś,s,pilzneński,sandomierskie,mała,50.0568658620000448,21.3167296750003246
Glowinsk_rpn_dbr,Głowińsk,Głowieńsko,wieś,k,rypiński,ziemia dobrzyńska,mała,53.0580046323230832,19.3788280588548112
Golebie_nmo_maz,,Gołębie,wieś,s,nowomiejski,mazowieckie,mała,52.6515893900000904,20.7700504940000847
Ganczyce_stz_snd,Gończyce,Gańczyce,wieś,s,stężycki,sandomierskie,mała,51.7813944680000517,21.7124465160002984
Grabowo_blk_pdl,Grabowo,Grabowo,wieś,s,bielski,podlaskie,mała,53.8836026954117031,22.8119768754106893
Grabowo_tcz_pmr,Grabowo Kościerskie,Grabowo,wieś,d,tczewski,pomorskie,mała,54.1670175314167821,18.1468905079936249
Debrzno_Folwark_czl_pmr,Debrzno-część,Frydland Lemani,osada folwarczna,k,człuchowski,pomorskie,,53.547531923039152,17.2281620005507072
Grabiec_sie_plc,Grąbiec,Grębiec,wieś,s,sierpecki,płockie,mała,52.8132623721609349,19.7838985246973031
Grebanin_ost_srd,,Grębanin,wieś,s,ostrzeszowski,sieradzkie,mała,51.2436562250000378,17.9735368040000765
Grebocin_prs_krk,,Grębocin,wieś,s,proszowicki,krakowskie,mała,50.160272439000039,20.3508152740000519
Grochowa_czr_maz,,Grochowa,wieś,s,czerski,mazowieckie,mała,51.9999437810000344,20.9870514460001303
Hacki_blk_pdl,Haćki,Haczki,wieś,k,bielski,podlaskie,duża,52.8339943312207012,23.1881751684137534
Henkendorf_wlc_pzn,Hanki,Henkendorf,wieś,s,wałecki,poznańskie,duża,53.3191775242730941,16.1509798386070962
Izdebno_gar_maz,,Izdebno,wieś,k,garwoliński,mazowieckie,duża,51.8251804630000663,21.5611053830001822
Jablonica_rdm_snd,,Jabłonica,wieś,s,radomski,sandomierskie,mała,51.355692292000036,20.8007019970001004
Janowice_snd_snd,,Janowice,wieś,s,sandomierski,sandomierskie,mała,50.815486924000048,21.6471125620005793
Janowo_gar_maz,Janów,Janowo,wieś,s,garwoliński,mazowieckie,mała,52.187375507000084,21.6552659790002622
Januszowice_chc_snd,Januszewice,Januszowice,wieś,s,chęciński,sandomierskie,mała,50.9410699320000404,19.9665040880000433
Jazdowice_dls_prs_krk,,Jazdowice,wieś,s,proszowicki,krakowskie,mała,50.3638597930000813,20.324741425000056
Gnaty_Szczepankowo_nmo_maz,Gnaty-Gromadze,Gnaty-Szczepankowo,wieś,s,nowomiejski,mazowieckie,mała,52.648110067000033,20.9019668600000941
Jastrzebie_folwark_swc_pmr,Jastrzębie,Pniewienko,osada folwarczna,s,świecki,pomorskie,,,
Malary_tcz_pmr,Malary,Malary,osada folwarczna,d,tczewski,pomorskie,,,
Dabrowka_srn_chl_chl,Dąbrówka,Dąbrówka,wieś,d,chełmiński,chełmińskie,mała,,
Szmelta_pck_pmr,,Szmelta,osada kuźnicza,k,pucki,pomorskie,,,
Godusza_scz_krk,Janowice - część,Godusza,wieś,d,szczyrzycki,krakowskie,mała,49.7695553080000721,20.1768301780000421
Szczuplin_tcz_pmr,,Szczuplin,wieś,s,tczewski,pomorskie,,,
Scheute_gdn_pmr,,Scheute,wieś,m,gdański,pomorskie,,,
Suszek_tch_pmr,,Suszek,osada młyńska,k,tucholski,pomorskie,,,
Rychtowo_gdn_pmr,,Rychtowo,osada folwarczna,k,gdański,pomorskie,,,
Robacznica_tcz_pmr,,Robacznica,osada młyńska,s,tczewski,pomorskie,,,
Rieska_pck_pmr,,Reszki,pustka,s,pucki,pomorskie,,,
Pruszkowo_Male_kls_kls,,Pruszkowo Małe,wieś,s,kaliski,kaliskie,,,
Gnatowice_prs_krk,,Gnatowice,wieś,s,proszowicki,krakowskie,mała,50.195889639000022,20.1798192100000904
Gnaty_Szczerbaki_nmo_maz,,Gnaty-Szczerbaki,wieś,s,nowomiejski,mazowieckie,mała,52.6521551580000775,20.9043464870000228
Gnaty_Czestki_nmo_maz,Gnaty-Wieśniany,Gnaty-Częstki,wieś,s,nowomiejski,mazowieckie,mała,52.6616730300000953,20.911961342000069
Gniewowo_pck_pmr,Gniewowo,Gniewowo,wieś,k,pucki,pomorskie,mała,54.5734589189908448,18.3103823380415918
Golanki_Wielkie_plc_plc,Golanki - część,Golanki Wielkie,wieś,s,płocki,płockie,mała,52.5534229782879905,19.994126473458131
Arciszewo_Rozdzialowe_bkj_bkj,Arciszewo-część,Erciszewo Rozdziałowe,wieś,s,brzeski kujawski lub przedecki,brzeskie kujawskie,mała,52.4584788830670732,18.8731802088531389
Golubie_tcz_pmr,Gołubie,Golubie,wieś,d,tczewski,pomorskie,mała,54.2119366772784517,18.026734168070643
Gulczewo_Dominikowe_gzn_kls,Gulczewo – część,Gulczewo Dominikowe,wieś,s,gnieźnieński,kaliskie,,,
Malachowo_Krzystkowo_gzn_kls,Małachowo – część,Małachowo Krzystkowo,wieś,s,gnieźnieński,kaliskie,,,
Golyszyn_prs_krk,,Gołyszyn,wieś,s,proszowicki,krakowskie,mała,50.2736464580000089,19.9139307250000428
Przedmiejski_gzn_kls,Trzemeszno – część,Przedmiejski,osada młyńska,d,gnieźnieński,kaliskie,,,
Ruda_gzn_kls,Nieświastowice – część,Ruda,wieś,s,gnieźnieński,kaliskie,,,
Gomolin_ptr_srd,Gomulin,Gomolin,wieś,s,piotrkowski,sieradzkie,mała,51.4170389710000109,19.5695300840001067
Jazdowice_kns_prs_krk,Jazdowiczki,Jazdowice,wieś,s,proszowicki,krakowskie,mała,50.1941535840000839,20.2614427180000831
Nowawies_okn_chl_chl,,Nowa Wieś,osada młyńska,k,chełmiński,chełmińskie,,53.4301910930149404,18.8386570482372058
Jazwiny_cch_maz,,Jaźwiny,wieś,s,ciechanowski,mazowieckie,mała,52.9552869080000548,20.8213830060000902
Jedlanka_jed_rdm_snd,,Jedlanka,wieś,s,radomski,sandomierskie,mała,51.5298827590000101,21.1002424450001129
Jedle_chc_snd,,Jedle,wieś,s,chęciński,sandomierskie,mała,50.9296634970000639,20.229487468000098
Jedlcza_Wielka_kss_krk,Jelcza Wielka,Jedlcza Wielka,wieś,s,ksiąski,krakowskie,mała,50.4990893639999996,20.4189152320001135
Zeliszewo_gar_maz,Jeruzal,Żeliszewo,miasto,s,garwoliński,mazowieckie,miasteczko,52.0649188420001181,21.8503862240003599
Jaruzele_drh_pdl,Jeruzale,Jeruzale,wieś,s,drohicki,podlaskie,mała,52.2932170249231021,22.1863343227958332
Jerzmanowo_bkj_bkj,Jerzmanowo,Jerzmanowo,wieś,s,brzeski kujawski,brzeskie kujawskie,mała,52.4975221784656796,18.9213680546646295
Jezewo_swc_pmr,Jeżewo,Jeżowo,wieś,d,świecki,pomorskie,mała,53.5092692129779621,18.4950402663740512
Chojnowo_nie_was_maz,,Chojnowo,wieś,s,wąsoski,mazowieckie,mała,53.5694127010001964,22.235676057999239
Radziczek_nkl_kls,Radzicz,Radziczek,wieś,s,nakielski,kaliskie,mała,53.1912684971950398,17.3930837148719064
Gorzechowko_chl_chl,Gorzechówko,Gorzuchowo,wieś,s,michałowski,chełmińskie,mała,53.3871591485927581,19.2119859949272964
Gorzew_szd_srd,,Gorzew,wieś,s,szadkowski,sieradzkie,mała,51.7101821450000045,19.3413248900001058
Gorzewo_sie_plc,,Gorzewo,wieś,d,sierpecki,płockie,mała,52.8155607560242331,19.683133232412942
Chelpy_Kasprow_Piec_was_maz,Kacprowo,Chełpy-Kasprów Piec,wieś,s,wąsoski,mazowieckie,mała,53.5992604330002749,22.4759726099986175
Kamianki_Micki_drh_pdl,Kamianki-Nicki,Kamianka-Mytki,wieś,s,drohicki,podlaskie,mała,52.309010720082469,22.5794811864426812
Kamieniec_snd_snd,,Kamieniec,wieś,s,sandomierski,sandomierskie,mała,50.7020727940000526,21.3694652790002735
Kamien_Kmiecy_dbr_dbr,Kamień Kmiecy,Kamienie Kmiece,wieś,s,dobrzyński,ziemia dobrzyńska,mała,52.7498265511883702,19.4300564276230467
Kamion_raw_raw,,Kamion,wieś,s,rawski,rawskie,mała,51.9438332180000586,20.2564777670000211
Kamionka_stz_snd,,Kamionka,wieś,s,stężycki,sandomierskie,mała,51.9041118810001549,21.9866675210005695
Karniszewo_gzn_kls,Karniszewo,Karniszewo,wieś,s,gnieźnieński,kaliskie,mała,52.6387187895611319,17.4870516405207574
Popowo_Male_orl_lcz,Popówek,Popowo Małe,wieś,s,orłowski,łęczyckie,mała,51.9967495850000319,19.635618302000065
Zdziesz_pzd_kls,Borek-Zdzież,Zdziesz,osada folwarczna,s,pyzdrski,kaliskie,,51.9137809314214209,17.2529965899642868
Karszow_szd_srd,Karszew,Karszów,wieś,s,szadkowski,sieradzkie,mała,51.6533178800000314,19.1376653020000873
Karsnice_ksc_pzn,Karśnice,Karśnice,wieś,s,kościański,poznańskie,mała,52.0548450213630289,16.4873691649088201
Karwowo_Konotopa_kol_maz,Karwowo,Karwowo-Konotopa,wieś,s,kolneński,mazowieckie,mała,53.3164055600002058,22.1425216809995504
Kawieczyno_Saksary_prz_maz,,Kawieczyno-Saksary,wieś,s,przasnyski,mazowieckie,mała,53.1882351540000116,20.7527037080000873
Kawodrza_llw_krk,Częstochowa-Kawodrza Dolna,Kawodrza,wieś,d,lelowski,krakowskie,mała,50.8047657099999981,19.0804743150000427
Kazanice_mch_chl,Kazanice,Kazanice,wieś,d,michałowski,chełmińskie,duża,53.5540420774075727,19.7301755511278643
Katki_mlb_mlb,Kątki,Kątki,wieś,s,malborski,malborskie,mała,53.9024390984390678,19.1413014539757711
Konachy_mln_pdl,,Konachy,wieś,s,mielnicki,podlaskie,,,
Wolka_Nadbuzna_drh_pdl,Wólka Nadbużna,Wólka,wieś,s,drohicki,podlaskie,mała,52.6960181888246737,22.2056316452128826
Konarzewo_Swiechy_cch_maz,,Konarzewo-Święchy,wieś,s,ciechanowski,mazowieckie,mała,52.8337652290000648,20.8570056460000721
Gosie_Lesnica_zmb_maz,Gosie Małe,Gosie-Leśnica,wieś,s,zambrowski,mazowieckie,duża,53.0437652620002424,22.3386855829996271
Goscinna_ptr_srd,,Gościnna,wieś,s,piotrkowski,sieradzkie,mała,51.250643174000075,19.6255557870000565
Kczewo_gdn_pmr,Kczewo,Kczewo,osada folwarczna,s,gdański,pomorskie,,54.3791403872240338,18.3124010378444595
Kamblowo_pzd_kls,Kębłowo,Kębłowo,wieś,s,pyzdrski,kaliskie,mała,52.2215543140429261,17.506241183197762
Kisielewo_dbr_dbr,Kisielewo,Kisielewo,wieś,s,dobrzyński,ziemia dobrzyńska,mała,52.6985981824199499,19.2521352655924858
Bejdy_Klimy_mln_pdl,Klimy,Bejdy-Klimy,wieś,s,drohicki,podlaskie,mała,52.1401948056433184,22.5965222262138106
Wklady_szd_srd,Kłady,Wkłady,wieś,s,szadkowski,sieradzkie,mała,51.6355832240000794,18.9823182350000756
Komierowo_nkl_kls,Komierowo,Komirowo,wieś,s,nakielski,kaliskie,mała,53.4528241272919757,17.655600191751585
Komorna_snd_snd,,Komorna,wieś,s,sandomierski,sandomierskie,mała,50.7229738020000838,21.6022181970005533
Komorniki_brz_lcz,,Komorniki,wieś,d,brzeziński,łęczyckie,mała,51.5368825420000576,19.8732517810000218
Konopnica_raw_raw,,Konopnica,wieś,s,rawski,rawskie,mała,51.7845293460000278,20.2908371350000358
Tansk_Kiernozy_prz_maz,,Tańsk-Kiernozy,wieś,s,przasnyski,mazowieckie,mała,53.1755092670000593,20.6145533360000961
Kownaty_pzd_kls,Kownaty,Kownaty,wieś,d,pyzdrski,kaliskie,mała,52.3371365474945165,17.8349664610059087
Gosniewice_Oldaki_grc_maz,Gośniewice,Gośniewice-Ołdaki,wieś,s,grójecki,mazowieckie,mała,51.7950449570000657,20.953429782000061
Gozlino_Nadolne_czr_maz,Goźlin Mały,Goźlino Nadolne,wieś,s,czerski,mazowieckie,mała,51.892293329000033,21.3120533450001552
Wroszkowo_pzd_kls,,Wroszkowo,pustka,s,pyzdrski,kaliskie,,,
Dawidy_hdn_mln_pdl,Dawidy,Dawidy,wieś,d,mielnicki,podlaskie,mała,52.1499999996369965,22.6147222217124622
Korzyn_wsl_snd,Korzenno,Korzyń,wieś,d,wiślicki,sandomierskie,mała,50.7081532800000474,20.924133854000118
Kowale_Arcybiskupie_srd_srd,Kowale Księże,Kowale Arcybiskupie,wieś,d,sieradzki,sieradzkie,mała,51.9709412280000222,18.5072655930000707
Kowalewo_kcn_kcn_kls,Kowalewko,Kowalewo,wieś,s,kcyński,kaliskie,mała,53.0715898366336702,17.4316251221090965
Kownaty_scn_maz,,Kownaty,wieś,s,sąchocki,mazowieckie,mała,52.6445496200000562,20.4417755030000556
Kownaty_Borowe_ndz_plc,,Kownaty Borowe,wieś,s,niedzborski,płockie,mała,52.8157605880808063,20.5370807292923843
Kozanki_szd_srd,"Kozanki Podleśne, Kozanki Wielkie",Kozanki,wieś,s,szadkowski,sieradzkie,mała,52.0414232910000507,18.8624460510000524
Koziczyno_cch_maz,Koziczyn,Koziczyno,wieś,s,ciechanowski,mazowieckie,mała,52.9821763380000164,20.6823830890000657
Umiastowo_Kreczki_bln_maz,Kręczki,Umiastowo-Krzęczki,wieś,s,błoński,mazowieckie,mała,52.2401887540000871,20.7822158380000417
Krolewice_snd_snd,,Królewice,wieś,ds,sandomierski,sandomierskie,mała,50.5897261110000613,21.4283502140003144
Krukowo_prz_maz,,Krukowo,wieś,s,przasnyski,mazowieckie,mała,53.2965159880000741,21.1027634590000837
Chrystoporzyce_prs_krk,Krzysztoforzyce,Chrystoporzyce,wieś,s,proszowicki,krakowskie,duża,50.1155837820000585,20.1359499450000428
Niwiska_plz_snd,,Niwiska,wieś,s,pilzneński,sandomierskie,mała,50.2217978630000985,21.6403185030007492
Karwosiek_Rospady_plc_plc,Karwosiaki-Respondy,Karwosiek-Rospądy,wieś,s,płocki,płockie,mała,52.6730660385670006,19.6218426264362193
Oblas_rdm_snd,,Oblas,wieś,s,radomski,sandomierskie,mała,51.4475879720000222,20.9252358000001024
Olszewo_Borzymy_mla_plc,,Olszewo-Borzymy,wieś,s,mławski,płockie,mała,53.0188854655919428,20.5074077341797505
Kuckuckkrug_gdn_pmr,,Kuckucks Krug,osada karczemna,m,gdański,pomorskie,,54.2865833962356987,19.0514867660375451
Olsztyn_llw_krk,,Olsztyn,miasto,k,lelowski,krakowskie,miasteczko,50.7521796210000531,19.2691655730001123
Olpiny_Wyzsze_bck_krk,Ołpiny,Ołpiny Wyższe,wieś,s,biecki,krakowskie,duża,49.8061829830000633,21.2016483040002512
Opalenie_now_pmr,Opalenie,Opalino,wieś,s,nowski,pomorskie,mała,53.74118332789363,18.8235417350806387
Ostrowite_now_pmr,Ostrowite,Ostrowite,osada folwarczna,s,nowski,pomorskie,,53.7247904974430881,18.7262764873681995
Osnica_mak_maz,,Ośnica,wieś,s,makowski,mazowieckie,mała,52.8529310160000634,21.0353290370000749
Owieczki_sdc_krk,Owieczka,Owieczki,wieś,s,sądecki,krakowskie,mała,49.5914540770000514,20.5369252500000634
Pajewo_Wielkie_cch_maz,,Pajewo Wielkie,wieś,s,ciechanowski,mazowieckie,mała,52.8533801900000384,20.8035601370000443
Parszczyce_pck_pmr,Parszczyce,Parszczyca,wieś,s,pucki,pomorskie,mała,54.7960425432617839,18.1687595647452476
Patkowice_mln_pdl,Patków,Padkowicze,wieś,s,drohicki,podlaskie,mała,52.27058266001292,22.7250553550174779
Pomiczow_bla_raw,Pączew,Pomiczów,wieś,s,bialski,rawskie,mała,51.6556420370000708,20.6325881960001176
Pelczyska_wsl_snd,,Pełczyska,wieś,s,wiślicki,sandomierskie,duża,50.3599974030000794,20.56554714000006
Piaseczno_tcz_pmr,Piaseczno,Piaseczno,wieś,k,tczewski,pomorskie,mała,53.8031061886228201,18.7767544178375836
Pirocice_prs_krk,Pierocice,Pirocice,wieś,s,proszowicki,krakowskie,mała,50.3474487730000604,20.3230628260001147
Pierzchaly_drh_pdl,Pierzchały,Pierzchały,wieś,s,drohicki,podlaskie,mała,52.3211686548881829,21.9949037636930775
Poczermino_scn_maz,Poczernin,Poczermino,wieś,s,sąchocki,mazowieckie,mała,52.566370318000061,20.4528445890000832
Pozarzyno_wsg_maz,Pozarzyn,Pożarzyno,wieś,s,wyszogrodzki,mazowieckie,mała,52.4166918120000318,20.2300933680000838
Jasionka_dmn_lcz_lcz,,Jasionka,wieś,s,łęczycki,łęczyckie,mała,51.9127717740000634,19.1427588890000742
Polwies_now_pmr,Półwieś,Półwsie,wieś,s,nowski,pomorskie,mała,53.7158184704403254,18.7426821932186876
Heringskrug_gdn_pmr,Trzcinisko-część,Heringskrug,osada karczemna,m,gdański,pomorskie,,54.3089895977782575,18.8690882128873447
Rothekrug_gdn_pmr,Wiślinka-część,Rothekrug,osada karczemna,m,gdański,pomorskie,,54.3263320282849307,18.8388736100163534
Goreczka_Sliwna_ksc_pzn,Góreczki Wielkie – część,Góreczka Śliwna,wieś,s,kościański,poznańskie,mała,51.6359252018199157,17.0836042152848364
Trzaski_Gorowo_mla_plc,Górowo-Trzaski,Trzaski-Górowo,wieś,s,mławski,płockie,mała,53.331966084367501,20.5253080785051729
Chechlowo_Stare_drh_pdl,Chechłowo,Chechłowo,wieś,s,drohicki,podlaskie,mała,52.50712526430042,22.5756942887149243
Gorki_Poniklystok_zmb_maz,Górskie Ponikły Stok,Górki-Ponikłystok,wieś,s,zambrowski,mazowieckie,mała,53.0702714060003728,22.4764784419993617
Przejazdowo_gdn_pmr,Przejazdowo,Quadendorf,wieś,d,gdański,pomorskie,mała,54.3257711081866077,18.7466173286565905
Przylek_llw_krk,,Przyłęk,wieś,s,lelowski,krakowskie,mała,50.6969971280000848,19.7553192790000871
Rybitwia_sch_raw,Rybitwa,Rybitwia,wieś,k,sochaczewski,rawskie,mała,52.3851799820000394,20.5939473020000854
Rybna_pck_pmr,Rybno,Rybno,wieś,s,pucki,pomorskie,mała,54.6822160558480519,18.08586937964931
Borucki_Mlyn_mrw_pmr,Borucino,Borucki Młyn,osada młyńska,s,mirachowski,pomorskie,,54.257027683462276,17.9789700605470628
Gory_gos_raw,,Góry,wieś,d,gostyniński,rawskie,mała,52.5008249260000781,19.659554167000092
Juchnowszczyzna_blk_pdl,Juchnowszczyzna,Juchnowszczyna,wieś,s,bielski,podlaskie,mała,53.0275885047226367,23.170507922977805
Grabowa_rdm_snd,,Grabowa,wieś,s,radomski,sandomierskie,mała,51.4317216190000366,20.5606850060000426
Jelitkowo_Mlyn_gdn_pmr,Gdańsk-część,Jelątkowo Młyn,osada młyńska,d,gdański,pomorskie,,54.4207602036763447,18.5913737005430448
Czerniewice_inw_inw,Czerniewice (Toruń - część),Czerniewice,pustka,s,inowrocławski,inowrocławskie,,52.9821852009909691,18.688020978070746
Grabowce_II_stz_snd,"Grabowice Dolne, Grabowice Górne",Grabowce II,wieś,s,stężycki,sandomierskie,mała,51.6250898500001583,22.1250993480009051
Grabowo_nur_maz,,Grabowo,wieś,s,nurski,mazowieckie,mała,52.754694546000195,22.1619487569999798
Grabowska_Wola_rdm_snd,,Grabowska Wola,wieś,s,radomski,sandomierskie,mała,51.515297991000061,20.7817712210000245
Sokolowo_kam_maz,Sokołowo Włościańskie,Sokołowo,wieś,s,kamieniecki,mazowieckie,mała,52.7597688950000361,21.3055792420000927
Sokole_wrs_maz,Sokule,Sokole,wieś,k,warszawski,mazowieckie,mała,52.2824232040000965,21.5905077540001358
Wysowatka_bck_krk,Wyszowatka,Wysowatka,wieś,s,biecki,krakowskie,mała,49.4533565060000484,21.4140389940005917
Lipna_rdm_snd,Lipno,Lipna,wieś,s,radomski,sandomierskie,mała,51.3691852990000299,20.5981696700000718
Lipno_chc_snd,,Lipno,wieś,s,chęciński,sandomierskie,mała,50.7842106090000911,20.1168775210000739
Grebiszewo_gar_maz,Grębiszew,Grębiszewo,wieś,s,garwoliński,mazowieckie,mała,52.1215289760000573,21.5043714810001418
Smiechowski_Mlyn_pck_pmr,Wejherowo-część,Śmiechowski Młyn,osada młyńska,s,pucki,pomorskie,,54.6094937113433687,18.2508611819582924
Lubiesza_rdk_drh_pdl,Lubieszcze,Lubiesza,wieś,s,drohicki,podlaskie,mała,52.714707052834882,22.7834753876659946
Plocko_zm_plc_plc,Płock,Płocko-zamek,zamek,k,płocki,płockie,,52.5322068378412297,19.7085053237657988
Niewodnica_Bronczanska_blk_pdl,Brończany,Niewodnica-Bronczany,wieś,s,bielski,podlaskie,mała,53.048850949597508,23.1098461785878619
Borki_blk_pdl,Stypułki-Borki,Borki,wieś,s,bielski,podlaskie,mała,53.0234314323659603,22.6419681360401945
Liubien_gzn_kls,Lubiń,Lubień,wieś,d,gnieźnieński,kaliskie,mała,52.5853271649458449,17.8879553517812333
Plewno_swc_pmr,Plewno,Pniewno,osada folwarczna,s,świecki,pomorskie,,53.4432816382384317,18.291244867343341
Pniewo_Klimuntowe_lcz_lcz,Pniewko,Pniewo Klimuntowe,wieś,s,łęczycki,łęczyckie,mała,52.2548004940000297,19.1193759050000551
Pobiednik_Wielki_prs_krk,,Pobiednik Wielki,wieś,d,proszowicki,krakowskie,mała,50.080986418000073,20.2037645830000443
Poddebice_bkj_bkj,Poddębice,Poddębice,wieś,s,brzeski kujawski,brzeskie kujawskie,mała,52.5526378489126245,19.0190387927150866
Potok_kss_krk,"Potok Mały, Potok Wielki",Potok,wieś,ds,ksiąski,krakowskie,mała,50.6015549040000465,20.2326629210000242
Grodzisko_grd_kls_kls,Grodzisko,Grodzisko,wieś,s,kaliski,kaliskie,mała,51.9502977941592263,17.8639650833582557
Cieciorki_mln_pdl,,Jeziorki,wieś,s,mielnicki,podlaskie,mała,52.5530517858938495,22.8785666757350192
Chojane_Baki_blk_pdl,Chojane-Bąki,Chojane-Bąki,wieś,s,bielski,podlaskie,mała,53.0035938234257529,22.5402322429178348
Borowskie_Prokuratowszczyzna_blk_pdl,Reńszczyzna,Borowo-Prokuratowszczyzna,wieś,s,bielski,podlaskie,mała,52.9450189465896486,23.0045113711378768
Grodek_lub_lub,,Gródek,wieś,k,lubelski,lubelskie,mała,51.5711169410006534,22.7948532550032787
Grudowo_bln_maz,Grudów,Grudowo,wieś,s,błoński,mazowieckie,mała,52.140078130000056,20.6899252260000388
Strzedzewo_Male_kls_kls,Strzydzew – część,Strzedzewo Małe,pustka,s,kaliski,kaliskie,,,
Glincz_Stary_gdn_pmr,Glincz,Glincz Stary,osada folwarczna,d,gdański,pomorskie,,54.3140216455995386,18.3392226973352948
Grzebiwilk_prs_gar_maz,Grzebowilk,Grzebiwilk,wieś,k,garwoliński,mazowieckie,mała,52.0223534500000966,21.5732748900002207
Grodna_bck_krk,Grudna Kępska,Grodna,wieś,k,biecki,krakowskie,mała,49.7403375940000245,21.2960025290003934
Przeborowski_Mlyn_bkj_bkj,,Przeborowski Młyn,osada młyńska,s,brzeski kujawski,brzeskie kujawskie,,,
Mochelek_bdg_inw,Mochelek (Lisewo Kościelne - część),Mochelek,wieś,s,bydgoski,inowrocławskie,mała,52.9001409924219459,18.0824052402041708
Gutkowice_raw_raw,,Gutkowice,wieś,s,rawski,rawskie,mała,51.7631875010000471,20.0392868270000477
Chebdow_o_prs_krk,,Chebdów-opactwo,opactwo,,proszowicki,krakowskie,,50.1316149425432371,20.3897638195130888
Mogila_o_prs_krk,,Mogiła-opactwo,opactwo,,proszowicki,krakowskie,,50.0642893341404402,20.0610362369882402
Guty_Wielkie_roz_maz,Guty Duże,Guty Wielkie,wieś,s,rożański,mazowieckie,mała,52.9359171190001021,21.2711350750000818
Parzniewo_Male_bln_maz,Helenów,Parzniewo Małe,wieś,s,błoński,mazowieckie,mała,52.1450554890000717,20.7778674660001315
Mroczkowa_Wola_tar_maz,Henryków,Mroczkowa Wola,wieś,s,tarczyński,mazowieckie,mała,51.9920326820000298,20.939684840000087
Umiecino_Rzytki_prz_maz,Humięcino-Retki,Umięcino-Rzytki,wieś,s,przasnyski,mazowieckie,mała,53.0022040570001067,20.5784932220000734
Siciny_tch_pmr,Siciny,Siciny,wieś,s,tucholski,pomorskie,mała,53.5699029145690204,17.7289576044902475
Sierzchowo_kls_kls,Sierzchów,Sierzchowo,wieś,d,kaliski,kaliskie,mała,51.7584702502971581,18.2809895100679505
Strzelce_luk_lub,Izdebki Błażeje,Strzelce,wieś,s,łukowski,lubelskie,mała,52.1099250810003838,22.5887802430010893
Jagodna_Wielka_mlb_mlb,Jagodno,Gross Wogenap,wieś,m,malborski,malborskie,mała,54.230204365297773,19.4185982760088933
Jaksice_kss_krk,,Jaksice,wieś,d,ksiąski,krakowskie,mała,50.3250615350000174,20.0074469370000827
Jakubice_srd_srd,,Jakubice,wieś,k,sieradzki,sieradzkie,duża,51.6554715820000396,18.62829708300006
Jakubowice_urz_lub,,Jakubowice,wieś,s,urzędowski,lubelskie,mała,50.8937527720000702,21.8342300140008057
Janczewo_Jakusze_wiz_maz,Janczewko,Janczewo-Jakusze,wieś,s,wiski,mazowieckie,mała,53.259113967000232,22.2639603269995092
Janowo_zkr_maz,,Janowo,wieś,s,zakroczymski,mazowieckie,mała,52.4914475790000381,20.6302024840000229
Nogawki_raw_raw,Nagawki,Nogawki,wieś,s,rawski,rawskie,mała,51.8977285090000464,19.7856850090000336
Lignowy_tcz_pmr,Lignowy Szlacheckie,Lignowy,wieś,k,tczewski,pomorskie,duża,53.9077882669654898,18.7812503788945691
Siana_liw_maz,Sionna,Siana,wieś,s,liwski,mazowieckie,mała,52.1988565040001404,22.0143481560003487
Jablonowo_Mackowieta_mla_plc,,Jabłonowo-Maćkowięta,wieś,s,mławski,płockie,mała,53.2457725512624123,20.4927750702135185
Wola_Slonkowska_gbn_raw,Wola Pacyńska,Wola Słonkowska,wieś,s,gąbiński,rawskie,duża,52.3157270920000386,19.7391861330001213
Jaroslawki_ksc_pzn,Jarosławki,Jarosławki,wieś,s,kościański,poznańskie,mała,52.0474387878281135,17.1704309514422953
Jaroszewo_gzn_kls,Jaroszewo Drugie,Jaroszewo,wieś,s,gnieźnieński,kaliskie,mała,52.6890528967375857,17.3408614082781263
Jasienica_nur_maz,,Jasienica,wieś,d,nurski,mazowieckie,duża,52.8028863780001245,22.0513135859999494
Jasiona_wrk_maz,Jasionna,Jasiona,wieś,s,warecki,mazowieckie,mała,51.6165121030000122,20.9064131820000689
Jasionna_kss_krk, ,Jasionna,wieś,s,ksiąski,krakowskie,mała,50.6268366770000355,20.4031810450000783
Jaslany_snd_snd,,Jaślany,wieś,ks,sandomierski,sandomierskie,duża,50.3956808410000576,21.4931952120004865
Lugowa_Wola_luk_lub,,Ługowa Wola,wieś,k,łukowski,lubelskie,mała,51.9672698670001409,22.1857557370006475
Jawor_opc_snd,,Jawor,wieś,s,opoczyński,sandomierskie,mała,51.3683195310000258,20.0601283590000286
Jedlanka_rdm_snd,Jedlanka Stara,Jedlanka,wieś,s,radomski,sandomierskie,mała,51.1973989060000108,21.2824992420001742
Tudorow_zm_snd_snd,,Tudorów-zamek,zamek,s,sandomierski,sandomierskie,,50.7689277250298829,21.4593605299938588
Jedlna_sdc_krk,Jelna,Jedlna,wieś,s,sądecki,krakowskie,mała,49.7040882430000792,20.7204483190000772
Jeziora_Male_grc_maz,Jeziorka,Jeziora Małe,wieś,d,grójecki,mazowieckie,mała,51.880291696000107,20.748938876000107
Jeziorko_ksc_pzn,Jeziorki,Jeziorko,wieś,s,kościański,poznańskie,mała,51.9009943013028803,16.653234432369473
Nierwanice_szd_srd,Jerwonice,Nierwanice,wieś,s,szadkowski,sieradzkie,mała,51.7766467360000178,19.1244619920000503
Ruda_Andryszowa_snd_snd,Jędrów,Ruda Andryszowa,osada kuźnicza,d,sandomierski,sandomierskie,,51.0180592930001069,20.8290128520000799
Retsz_sls_krk,Tarnawa Górna - część,Retsz,wieś,s,śląski,krakowskie,mała,49.7788025990000449,19.5116928620000856
Jugowice_scz_krk,Kraków-Jugowice,Jugowice,wieś,d,szczyrzycki,krakowskie,mała,50.0068953510000185,19.9347491320000714
Jostowa_Gora_sdc_krk,Tęgoborze-Just,Jostowa Góra,wieś,s,sądecki,krakowskie,mała,49.7236759670000907,20.6412027490001009
Lipnica_Mala_szd_srd,Lipnica - część,Lipnica Mała,wieś,d,szadkowski,sieradzkie,mała,51.9102568850000878,18.861731561000024
Kalki_cch_maz,Kałki,Kałki,wieś,s,ciechanowski,mazowieckie,mała,52.7635650280000803,20.4837813540000724
Kamienica_sie_plz_snd,Kamienica Górna,Kamienica,wieś,s,pilzneński,sandomierskie,mała,49.9072038610000064,21.4818507600005688
Kamieniec_tms_gzn_kls,Kamieniec,Kamieniec,wieś,d,gnieźnieński,kaliskie,mała,52.5459332400639525,17.9663184798171862
Kanie_bln_maz,,Kanie,wieś,s,błoński,mazowieckie,mała,52.135760435000094,20.7671388150001199
Czajka_lpn_dbr,,Czajka,osada młyńska,d,lipnowski,ziemia dobrzyńska,,,
Opatowek_zm_kls_kls,Opatówek,Opatówek,zamek,d,kaliski,kaliskie,,51.7330931076534455,18.2066549825674002
Konin_zm_knn_kls,Konin,Konin-zamek,zamek,k,koniński,kaliskie,,52.2087348547650549,18.244561006878687
Kujawy_prs_krk,Kraków-Kujawy,Kujawy,wieś,s,proszowicki,krakowskie,mała,50.0578223660000674,20.1033870210000458
Rudniki_scz_krk,Rudnik,Rudniki,wieś,k,szczyrzycki,krakowskie,mała,49.9103504770000583,20.0980622380000895
Kazom_Wielki_zkr_maz,Kazuń Polski,Kazom Wielki,wieś,k,zakroczymski,mazowieckie,duża,52.3995064230000622,20.6608917560000549
Kakolewo_kkl_ksc_pzn,Kąkolewo,Kąkolewo,wieś,s,kościański,poznańskie,duża,51.8646582652285559,16.6941940054974829
Katy_srd_srd,,Kąty,wieś,s,sieradzki,sieradzkie,mała,51.412553359000043,18.9088147960000263
Kierlikowka_scz_krk,,Kierlikówka,wieś,s,szczyrzycki,krakowskie,mała,49.8241643230000406,20.3785091510000385
Goslawicze_zm_knn_kls,Gosławice (Konin – część),Gosławice-zamek,zamek,s,koniński,kaliskie,,52.2939537176732543,18.2678249051458756
Walcz_zm_wlc_pzn,Wałcz,Wałcz-zamek,zamek,k,wałecki,poznańskie,,53.2665192616565619,16.4593517394642319
Kielpinek_gdn_pmr,Kiełpinek,Klein Colpin,osada folwarczna,s,gdański,pomorskie,,54.3547850872273841,18.5239598743896678
Grzybowo_orl_lcz,Grzybów Hornowski,Grzybowo,wieś,s,orłowski,łęczyckie,mała,52.222036087000042,19.7313890680000412
Wodzislaw_zm_kss_krk,,Wodzisław-zamek,zamek,s,ksiąski,krakowskie,,50.5240752646076459,20.203855800343181
Gorzekowo_gzn_kls,Gorzykowo,Gorzekowo,wieś,s,gnieźnieński,kaliskie,mała,52.4018664437293253,17.7142952747466573
Tyniec_kl_scz_krk,Kraków-Tyniec,Tyniec-klasztor,opactwo,d,szczyrzycki,krakowskie,,50.0201406852566635,19.8144024694747358
Kleczany_plz_snd,,Klęczany,wieś,s,pilzneński,sandomierskie,mała,50.0713104760001002,21.7957632360010543
Klodka_chl_chl,Kłódka,Kłódka,wieś,s,chełmiński,chełmińskie,mała,53.5021226081123871,18.8774341657125859
Kmurow_sdc_krk,Knurów,Kmurów,wieś,s,sądecki,krakowskie,mała,49.4804998110000582,20.1845032810000937
Uniejow_zm_szd_srd,,Uniejów-zamek,zamek,d,szadkowski,sieradzkie,,51.9713002449496599,18.7818466234503703
Opoczno_zm_opc_snd,,Opoczno-zamek,zamek,k,opoczyński,sandomierskie,,51.3763906428406401,20.2970871361005791
Koscian_zm_ksc_pzn,Kościan,Kościan-zamek,zamek,k,kościański,poznańskie,,52.0801308237215395,16.6505668783704905
Konska_Wola_zm_lub_lub,Końskowola,Końska Wola-zamek,zamek,s,lubelski,lubelskie,,51.4055559565439708,22.0609967959232876
Kobele_lcz_lcz,Kobyle,Kobele,wieś,d,łęczycki,łęczyckie,mała,52.1320540300000701,18.9487739480000137
Kobyle_plz_snd,,Kobyle,wieś,s,pilzneński,sandomierskie,mała,49.8420462440001018,21.6265147420007686
Sadowie_pzn_pzn,,Sadowie,pustka,s,poznański,poznańskie,,,
Kobylnica_stz_snd,,Kobylnica,wieś,s,stężycki,sandomierskie,mała,51.6528444950000889,21.5711000810002496
Kobylniki_wsl_snd,,Kobylniki,wieś,s,wiślicki,sandomierskie,mała,50.3239313350000543,20.445071308000017
Myslino_Koczowo_szr_plc,Myślin-Kocewo,Myślino Koczowe,wieś,s,szreński,płockie,mała,52.9519525346818583,19.9142640731286207
Kochanow_rdm_snd,,Kochanów,wieś,s,radomski,sandomierskie,mała,51.3673308740000678,20.7830530660000576
Kolaczkowo_gzn_kls,Kołaczkowo,Kołaczkowo,wieś,s,gnieźnieński,kaliskie,mała,52.4607668701760375,17.7845058425257925
Pogorzale_rdm_snd,,Pogorzałe,wieś,s,radomski,sandomierskie,mała,51.1309773870000441,20.8513715860000595
Konary_sch_raw,,Konary,wieś,s,sochaczewski,rawskie,mała,52.2967263290000375,20.2815318890000889
Konarzyce_lom_maz,,Konarzyce,wieś,k,łomżyński,mazowieckie,duża,53.1307768940001424,22.0429427229997721
Konopki_Klimki_zmb_maz,,Konopki-Klimki,wieś,s,zambrowski,mazowieckie,mała,53.1539928670004329,22.5988144589989375
Kopaniny_plz_snd,,Kopaniny,wieś,s,pilzneński,sandomierskie,mała,50.2861181610000614,21.2326005210002222
Kosczierzina_minor_nkl_kls,Kościerzyn Wielki,Kościerzyna Mała,wieś,s,nakielski,kaliskie,mała,53.2091013315478207,17.2660650328377976
Kotwin_opc_snd,Kotfin,Kotwin,wieś,s,opoczyński,sandomierskie,mała,51.3576935290000307,20.4392405860000856
Kotki_wsl_snd,,Kotki,wieś,s,wiślicki,sandomierskie,mała,50.5044614180000835,20.8010267370001003
Kowalewo_Podborne_bls_plc,Kowalewo Podborne - część,Kowalewo Podborne,wieś,s,bielski,płockie,mała,52.746645158147679,19.7197835888416897
Gac_Gorki_kls_kls,,Górki,pustka,s,kaliski,kaliskie,,,
Kownatki_luk_lub,,Kownatki,wieś,k,łukowski,lubelskie,mała,51.9093400740003972,22.5344591660013798
Kozirog_mch_chl,Kozi Róg,Koziróg,wieś,s,michałowski,chełmińskie,mała,53.1923137690671766,19.4349374161278305
Wola_Szczawienska_srd_srd,,Wola Szczawieńska,wieś,s,sieradzki,sieradzkie,mała,51.4369691530000637,18.8111938440000657
Dzierzgow_sch_raw,,Dzierzgów,wieś,d,sochaczewski,rawskie,mała,52.0406583200000483,20.0406331540001226
Gadomiec_Chrzczony_prz_maz,,Gadomiec-Chrzczony,wieś,s,przasnyski,mazowieckie,mała,53.2094535820000303,20.8339861300000493
Krajewo_Biale_Jablon_zmb_maz,Krajewo Białe,Krajewo Białe Jabłoń,wieś,s,zambrowski,mazowieckie,duża,52.9445448510002876,22.3377231699997409
Krabsko_knn_kls,Kramsk,Krąpsko,wieś,k,koniński,kaliskie,mała,52.2663542596138555,18.4265110562039531
Krasawa_llw_krk,Krasawa Druga,Krasawa,wieś,k,lelowski,krakowskie,mała,50.7055421860000735,19.3424529720000784
Krzetkowo_sie_plc,Kręczkowo,Krzętkowo,wieś,s,sierpecki,płockie,mała,52.7914820845307204,19.6373043511150236
Krogulcza_Kocielkowa_rdm_snd,Krogulcza Mokra,Krogulcza Kociełkowa,wieś,s,radomski,sandomierskie,mała,51.337803302000026,21.0016453730000876
Krajowice_plz_snd,,Krajowice,wieś,d,pilzneński,sandomierskie,mała,49.7735403510000367,21.4153889090004625
Krasniewo_Zastrugi_pln_plc,Kraśniewo - część,Kraśniewo-Zastrugi,wieś,s,płoński,płockie,mała,52.6929249228470766,20.143105884728957
Zbaszyn_zm_ksc_pzn,Zbąszyń,Zbąszyń-zamek,zamek,s,kościański,poznańskie,,52.2436885072422896,15.9173721123832799
Kruszyno_blk_pdl,Kruszyn,Kruszyno,wieś,s,bielski,podlaskie,mała,53.2568811865459821,22.7657865890700997
Kryg_bck_krk,,Kryg,wieś,kd,biecki,krakowskie,duża,49.6563007350000873,21.2553289450002829
Tymienica_rdm_snd,Tymienica Stara,Tymienica,wieś,s,radomski,sandomierskie,mała,51.2705856340000707,21.6900198890004816
Krupka_chl_chl,Krupka,Krupka,osada młyńska,k,chełmiński,chełmińskie,,53.1118877148868833,18.8153726399716881
Malbork_mlb_mlb,Malbork,Malbork,miasto,k,malborski,malborskie,miasto,54.0378680489141772,19.0269425879830116
Nowe_now_pmr,Nowe,Nowe,miasto,k,nowski,pomorskie,miasto,53.646780905293582,18.730631120641636
Radomysl_plz_snd,Radomyśl Wielki,Radomyśl,miasto,s,pilzneński,sandomierskie,miasteczko,50.1972533250000978,21.2825326710002827
Skarbimierz_prs_krk,Skalbmierz,Skarbimierz,miasto,d,proszowicki,krakowskie,miasteczko,50.318657295000051,20.402560619000031
Pyziolki_Brodowo_wiz_maz,,Pyziołki-Brodowo,wieś,s,wiski,mazowieckie,mała,53.3078449320002719,22.3740925319992385
Kuklowka_msz_raw,Kuklówka Zarzeczna,Kuklówka,wieś,s,mszczonowski,rawskie,mała,52.0421716780000452,20.5916413100000284
Koniewo_sie_plc,Kuniewo,Koniewo,wieś,d,sierpecki,płockie,mała,52.7819455971117222,19.633553813058171
Slowikowo_gzn_kls,Słowikowo,Słowikowo,wieś,s,gnieźnieński,kaliskie,mała,52.5157367134025321,17.9334275051507674
Swiejki_Slupce_Tomasek_bla_raw,Słupce,Świejki-Słupce Tomasek,wieś,s,bialski,rawskie,mała,51.7647861340000688,20.4721340220000769
Skawina_scz_krk,,Skawina,miasto,d,szczyrzycki,krakowskie,miasteczko,49.9757125150000121,19.8262100180000083
Sadecz_Stary_sdc_krk,Stary Sącz,Sądecz Stary,miasto,d,sądecki,krakowskie,miasteczko,49.5625502880000468,20.633880862000062
Szczuki_Litwa_was_maz,Szczuczyn - część,Szczuki-Litwa,wieś,k,wąsoski,mazowieckie,mała,53.5602336040002243,22.2849188739991781
Tlusciec_kam_maz,Tłuszcz,Tłuściec,wieś,k,kamieniecki,mazowieckie,duża,52.4268538420000638,21.4369816870000847
Wojkowice_Komorne_czl_swr,Wojkowice,Wojkowice Komorne,wieś,d,księstwo siewierskie,księstwo siewierskie,mała,50.3586167710000581,19.0497792680000906
Wola_Zabkowa_wrs_maz,Ząbki,Wola Ząbkowa,wieś,k,warszawski,mazowieckie,mała,52.2869318870000157,21.1104501790000789
Ruda_sch_raw,Żyrardów - część,Ruda,wieś,k,sochaczewski,rawskie,mała,52.0494291870000652,20.4418100580000193
Brok_nur_maz,,Brok,miasto,d,nurski,mazowieckie,miasto,52.7002904310000773,21.8637614110000449
Wierzbna_lcz_lcz,Aleksandrów,Wierzbna,wieś,s,łęczycki,łęczyckie,mała,51.8152888430000758,19.3038949559999757
Slawkow_zm_prs_krk,,Sławków-zamek,zamek,d,proszowicki,krakowskie,,50.2935035989186616,19.383916848834744
Bielsk_blk_pdl,Bielsk Podlaski,Bielsk,miasto,k,bielski,podlaskie,miasto,52.7707310401895739,23.1923055519662995
Czarnkow_pzn_pzn,Czarnków,Czarnków,miasto,s,poznański,poznańskie,miasteczko,52.9045216396958651,16.5649434176791353
Dluga_Wies_srd_srd,Dobra - część,Długa Wieś,wieś,s,sieradzki,sieradzkie,mała,51.9175712130000377,18.6101626900000134
Drohiczyn_drh_pdl,Drohiczyn,Drohiczyn,miasto,k,drohicki,podlaskie,miasto,52.3955114365721428,22.6582087970763375
Knyszyn_blk_pdl,Knyszyn,Knyszyn,miasto,k,bielski,podlaskie,miasto,53.3121401131159018,22.9186175561810082
Krotoszyn_pzd_kls,Krotoszyn,Krotoszyn,miasto,s,pyzdrski,kaliskie,miasto,51.6944659238020705,17.439648569177038
Konin_snd_snd,Kunin,Konin,wieś,s,sandomierski,sandomierskie,mała,50.8520691070000055,21.1461107050001651
Laski_slk_prs_krk,,Laski,osada kuźnicza,s,proszowicki,krakowskie,,50.3178052900001163,19.4618370999999968
Leszczkow_snd_snd,,Leszczków,wieś,s,sandomierski,sandomierskie,mała,50.74562030200007,21.4873468870004274
Goniadz_zm_blk_pdl,Goniądz,Goniądz-zamek,zamek,k,bielski,podlaskie,,53.4834689264300636,22.7450464410565978
Rakowka_rdm_snd,Rekówka,Rakówka,wieś,s,radomski,sandomierskie,mała,51.2419471470001469,21.625201316000453
Lacko_sdc_krk,,Łącko,wieś,d,sądecki,krakowskie,mała,49.5574991680000352,20.4358695420000096
Mlice_Grabia_bls_plc,Łęg Kasztelański,Mlice-Grabia,wieś,s,bielski,płockie,mała,52.7114020059979396,19.8741839434343888
Legonice_bla_raw,,Łęgonice,wieś,d,bialski,rawskie,duża,51.6152617750000715,20.5207964850001048
Lekawka_plz_snd,,Łękawka,wieś,s,pilzneński,sandomierskie,mała,49.9491896800000745,21.0343071410001983
Lojewo_rdz_maz,Łojki,Łojewo,wieś,s,radziłowski,mazowieckie,mała,53.5524590480003226,22.5030731109985922
Makowo_Bure_wiz_maz,Makowskie,Makowo Bure,wieś,s,wiski,mazowieckie,mała,53.274030893000301,22.4071238079992163
Karniewo_Malechy_cch_maz,Malechy,Karniewo-Malechy,wieś,s,ciechanowski,mazowieckie,mała,52.8495507520001127,20.9834696000001273
Losien_prs_krk,Dąbrowa Górnicza-Łosień,Łosień,wieś,d,proszowicki,krakowskie,duża,50.3516531220000516,19.3400681829999819
Malikowice_snd_snd,Malkowice,Malikowice,wieś,k,sandomierski,sandomierskie,mała,50.6713574430000193,21.1971232790002198
Cibory_Marki_zmb_maz,,Cibory-Marki,wieś,s,zambrowski,mazowieckie,mała,53.1278069400004185,22.5777740909990534
Klawkowo_czl_pmr,Klawkowo,Klawkowy,osada folwarczna,s,człuchowski,pomorskie,,53.7117959295369829,17.60301499521632
Krochow_bla_raw,,Krochów,wieś,s,bialski,rawskie,,,
Mierzecice_swr_swr,,Mierzęcice,wieś,ds,księstwo siewierskie,księstwo siewierskie,mała,50.4466568280001013,19.128539427000117
Brzesciany_rdm_snd,,Brześciany,wieś,s,radomski,sandomierskie,,,
Mizerna_sdc_krk,,Mizerna,wieś,k,sądecki,krakowskie,mała,49.4604171600000697,20.2921500970000288
Ostrow_liw_maz,,Ostrów,wieś,s,liwski,mazowieckie,,,
Orunia_gdn_pmr,Orunia,Ora,wieś,m,gdański,pomorskie,duża,54.323099218735571,18.636042211368288
Padew_snd_snd,Padew Narodowa,Padew,wieś,k,sandomierski,sandomierskie,duża,50.4351015630000674,21.4964954070004985
Paprotna_nur_maz,Paproć Mała,Paprotna,wieś,d,nurski,mazowieckie,duża,52.87415196600017,22.1132211999998916
Pasimiechy_prs_krk,Paśmiechy,Pasimiechy,wieś,s,proszowicki,krakowskie,mała,50.2461953790000138,20.4497661740000893
Plomieniec_gar_maz,,Płomieniec,wieś,s,garwoliński,mazowieckie,mała,52.0745987080000745,21.8694119560003664
Czerwone_sdc_krk,Podczerwone,Czerwone,wieś,k,sądecki,krakowskie,mała,49.407426182000016,19.8280196670000528
Wieska_Pogroszewska_bln_maz,Pogroszew-Kolonia,Wieska Pogroszewska,wieś,s,błoński,mazowieckie,mała,52.2225044810000512,20.7276830370000482
Pomianowo_Wyszki_wsg_maz,Pomianowo-Wyżgi,Pomianowo-Wyszki,wieś,s,wyszogrodzki,mazowieckie,mała,52.6102343900000875,20.1727516080000839
Skarzysko_rdm_snd,Skarżysko Książęce,Skarżysko,wieś,s,radomski,sandomierskie,mała,51.1488968050000707,20.8705683870000627
Popki_Bialesuknie_kol_maz,Popki,Popki-Białesuknie,wieś,s,kolneński,mazowieckie,mała,53.2805024890001562,22.0223420209997158
Poreba_sdc_krk,Nowy Sącz-Poręba Mała,Poręba,wieś,s,sądecki,krakowskie,mała,49.569467857000042,20.7091030490000989
Promna_grc_maz,,Promna,wieś,s,grójecki,mazowieckie,mała,51.677372539000018,20.9586356960001154
Kajmow_snd_snd,,Kajmów,wieś,s,sandomierski,sandomierskie,mała,50.5513261360001138,21.651773010000678
Ryecza_inw_inw,,Dryjęcza,osada młyńska,k,inowrocławski,inowrocławskie,,,
Pozna_bck_krk,Gromnik - część,Pozna,wieś,s,biecki,krakowskie,mała,49.8388291890000872,20.93708079400011
Gruszow_wsl_snd,Gruszów Wielki,Gruszów,wieś,s,wiślicki,sandomierskie,mała,50.1930416220001021,21.0423176870001463
Ruda_Siekliny_snd_snd,Rejów,Ruda Siekliny,osada kuźnicza,d,sandomierski,sandomierskie,,51.0886728750000714,20.8478197130000815
Krowodrza_prs_krk,Kraków-Krowodrza,Krowodrza,wieś,d,proszowicki,krakowskie,duża,50.0786985190000351,19.9311324040000493
Gorzuchowo_gzn_kls,Gorzuchowo,Gorzuchowo,wieś,s,gnieźnieński,kaliskie,mała,52.6125063187309152,17.4063673409564572
Ruda_pol_snd_snd,,Ruda,wieś,s,sandomierski,sandomierskie,mała,50.4762152980000778,21.2396241860002917
Romoka_ndz_plc,Rumoka,Romoka,wieś,s,niedzborski,płockie,mała,52.8224348679749411,20.4580328997986172
Chelchy_Rutki_cch_maz,Rutki,Chełchy-Rutki,wieś,s,ciechanowski,mazowieckie,mała,52.8588488140000479,20.9416244310000224
Ryki_rdm_snd,,Ryki,wieś,s,radomski,sandomierskie,mała,51.5619227670000271,20.9773398170000647
Rytter_sdc_krk,Rytro,Rytter,wieś,k,sądecki,krakowskie,mała,49.4887803350000297,20.6734349280001233
Rzechowo_Gac_roz_maz,,Rzechowo-Gać,wieś,s,rożański,mazowieckie,mała,52.9516888900000495,21.2336034370000597
Rzeczniow_Wiekszy_rdm_snd,Rzeczniów,Rzeczniów Większy,wieś,s,radomski,sandomierskie,duża,51.1261040710000643,21.4323719180003032
Rzeki_Wielkie_rds_srd,,Rzeki Wielkie,wieś,s,radomszczański,sieradzkie,mała,50.8750500970000488,19.3887451370000967
Siedlca_wrs_maz,Warszawa-Sielce,Siedlca,wieś,d,warszawski,mazowieckie,mała,52.1988647240000176,21.0437394400001061
Rzeczki_Wolki_cch_maz,,Rzeczki-Wólki,wieś,s,ciechanowski,mazowieckie,mała,52.8331615310001155,20.683116343000048
Sulejowo_kls_kls,,Sulejowo,pustka,s,kaliski,kaliskie,,,
Komorowo_dbs_gzn_kls,Komorowo,Komorowo,wieś,s,gnieźnieński,kaliskie,duża,52.3383756399721776,18.0991489187191164
Siedliska_sie_plc,,Siedliska,wieś,s,sierpecki,płockie,mała,52.9250255250081594,19.921235555576569
Bolkowo_nmo_maz,Bulkowo,Bolkowo,wieś,d,nowomiejski,mazowieckie,mała,52.6850794660000474,20.9772395100000928
Klodno_bln_maz,Stare Kłudno,Kłodno,wieś,s,błoński,mazowieckie,mała,52.1503716380000526,20.6034201900000724
Mlodochowo_rac_plc,,Młodochowo,wieś,d,raciąski,płockie,duża,52.7237453629583186,20.0615234536445826
Prusy_tch_pmr,Stare Prusy,Prusy,wieś,s,tucholski,pomorskie,mała,53.8473467149580785,18.0504076305135683
Zalesie_Stare_zmb_maz,,Zalesie Stare,wieś,s,zambrowski,mazowieckie,mała,53.0979641120003478,22.5214907639992461
Cedzyno_kol_maz,Cydzyń-Stary,Cedzyno,wieś,s,kolneński,mazowieckie,mała,53.2401102670001691,22.1326511389996732
Gnojenko_gos_raw,Walentynów - część,Gnojenko,wieś,s,gostyniński,rawskie,mała,52.2479824100000556,19.3014698340000841
Laskowo_zmb_maz,Laskowiec Stary,Laskowo,wieś,s,zambrowski,mazowieckie,mała,52.9529646630002304,22.2913740599997539
Ruckfahr_gdn_pmr,Gdańsk-część,Rückfahr,osada karczemna,m,gdański,pomorskie,,54.3465296339230761,18.7568766990493359
Stodolina_Wola_plz_snd,Stodolina,Stodolina Wola,wieś,d,pilzneński,sandomierskie,mała,49.809270772000076,21.7442464730010308
Lazy_kam_maz,Łazy Stare,Łazy,wieś,s,kamieniecki,mazowieckie,mała,52.5665979280000712,21.6121283120000811
Galazki_Milewo_was_maz,Gałązki,Gałązki-Milewo,wieś,s,wąsoski,mazowieckie,mała,53.5293896990001628,22.1262796049994215
Wrebow_wsl_snd,Rembów,Wrębów,wieś,s,wiślicki,sandomierskie,mała,50.7011536670000567,21.0508313780001295
Puchacze_blk_pdl,Puchacze,Puchacze,osada młyńska,k,bielski,podlaskie,,52.7733064805807004,22.9552976299296638
Oszaborowice_bkj_bkj,,Osięborowice,pustka,s,brzeski kujawski,brzeskie kujawskie,,,
Wasniewo_Grabowo_mla_plc,,Waśniewo-Grabowo,wieś,s,mławski,płockie,mała,53.2527614661689057,20.5685566582633221
Sucha_snd_snd,Suchowola,Sucha,wieś,k,sandomierski,sandomierskie,duża,50.5369942310000724,21.3996141250003156
Sukman_sdc_krk,Sukmanie,Sukman,wieś,s,sądecki,krakowskie,mała,49.9066612760000581,20.8199145480001029
Sulkowo_Wielkie_ndz_plc,Sułkowo Polne,Sułkowo Wielkie,wieś,s,niedzborski,płockie,mała,52.9323069318196104,20.4066934595356955
Siasty_wsg_maz,Szasty,Siasty,wieś,s,wyszogrodzki,mazowieckie,mała,52.5596423700000699,20.1760791920000671
Sulikow_swr_swr,Siewierz-Sulików,Sulików,wieś,d,księstwo siewierskie,księstwo siewierskie,mała,50.4536762380000852,19.2520334540001059
Szczegiel_snd_snd,Szczegło,Szczegieł,wieś,ds,sandomierski,sandomierskie,mała,50.8365727650000281,21.2765344840002193
Grzybowo_mln_pdl,Grzybów,Grzybowo,wieś,s,mielnicki,podlaskie,mała,52.3001414069866826,22.8688798969279503
Jablonia_Dobki_blk_pdl,Jabłoń-Dobki,Jabłonia-Dobki,wieś,s,bielski,podlaskie,mała,52.9181198936642048,22.6359190233886594
Szymunowice_II_snd_snd,"Szymanowice Dolne, Szymanowice Górne",Szymunowice II,wieś,s,sandomierski,sandomierskie,mała,50.6340192170000805,21.4353101610004231
Sliwowo_Lopienite_zmb_maz,,Śliwowo-Łopienite,wieś,s,zambrowski,mazowieckie,mała,53.0701869890003266,22.5145577579993095
Sniadka_snd_snd,,Śniadka,wieś,d,sandomierski,sandomierskie,mała,50.9607295710000443,20.9977592580001229
Tursko_Male_snd_snd,,Tursko Małe,wieś,s,sandomierski,sandomierskie,mała,50.449394666000039,21.3572047680003188
Turza_Mala_szr_plc,Turza Mała,Turza Mała,wieś,s,szreński,płockie,mała,53.1152307941660027,20.2479319550958294
Turza_Wielka_szr_plc,Turza Wielka,Turza Wielka,wieś,s,szreński,płockie,duża,53.1072346259773269,20.2324476646282179
Czechowice_bln_maz,Czechowice - część,Czechowice,wieś,s,błoński,mazowieckie,mała,52.1909958890000354,20.885346071000118
Wolka_Wesolowska_snd_snd,Wesołówka,Wólka Wesołowska,wieś,s,sandomierski,sandomierskie,mała,50.9702968320000593,21.7953733910007692
Wielawies_snd_snd,Wielowieś,Wielawieś,wieś,s,sandomierski,sandomierskie,mała,50.6363435070000705,21.7536316560007457
Wezyczyn_gar_maz,,Wężyczyn,wieś,k,garwoliński,mazowieckie,mała,52.0593428000001666,21.8203749800002953
Wiadrowo_szr_plc,,Wiadrowo,wieś,s,szreński,płockie,mała,53.0830736116579942,19.9093689436220345
Wilkta_gar_maz,Wilchta,Wilkta,wieś,s,garwoliński,mazowieckie,mała,51.9421865130001024,21.7065496620003167
Witow_prs_krk,,Witów,wieś,s,proszowicki,krakowskie,duża,50.1577109050000587,20.5737539750001091
Wola_Kanigowska_ndz_plc,Wola Kanigowska,Wola Kanigowska,wieś,s,niedzborski,płockie,mała,52.8859750938756008,20.3867511613372407
Wola_Korycka_liw_maz,Wola Korytnicka,Wola Korycka,wieś,k,liwski,mazowieckie,duża,52.4067965420001087,21.8168347420001822
Witkowice_plz_snd,,Witkowice,wieś,k,pilzneński,sandomierskie,duża,50.0704124010000484,21.6359334950007884
Wroczanka_bck_krk,Wrocanka,Wroczanka,wieś,s,biecki,krakowskie,mała,49.7078129250000416,21.5785905360006964
Wywoz_opc_snd,,Wywóz,wieś,s,opoczyński,sandomierskie,mała,51.3854513810000384,20.4864895670000742
Zabranice_wrs_maz,Zabraniec,Zabranice,wieś,s,warszawski,mazowieckie,mała,52.2981520140000384,21.3424543640000941
Zabrozdy_gar_maz,Zabruzdy,Zabrozdy,wieś,s,garwoliński,mazowieckie,mała,51.8995148990001027,21.8555980290004186
Wola_Dryzdek_orl_lcz,,Wola Dryzdek,wieś,s,orłowski,łęczyckie,,,
Zajezierze_mlb_mlb,Osiedle Sierakowskich,Zajezierze,wieś,s,malborski,malborskie,mała,53.9141379832234193,19.0251590370727008
Zakrzewo_mrw_pmr,Zakrzewo,Zakrzewo,wieś,s,mirachowski,pomorskie,mała,54.4664617562232038,17.862363173903681
Mikolajowice_llw_krk,Mikołajewice,Mikołajowice,wieś,s,lelowski,krakowskie,mała,50.6229958900000199,19.6660121590000294
Zagorze_chc_snd,,Zagórze,wieś,d,chęciński,sandomierskie,mała,50.8568989570000838,20.6751481460000512
Zakrzewo_wsg_maz,Zakrzewo,Zakrzewo,wieś,s,wyszogrodzki,mazowieckie,mała,52.4184150680000585,19.9983052390000431
Wolica_szy_wsl_snd,,Wolica,wieś,k,wiślicki,sandomierskie,mała,50.5705389580000571,20.9630000220001556
Boruty_Chojane_blk_pdl,,Chojane-Boruty,wieś,s,bielski,podlaskie,,,
Zblutowo_blk_pdl,Zblutowo,Zbylitowo,wieś,s,bielski,podlaskie,mała,53.4094533028425715,22.7645907266290166
Zborowice_bck_krk,,Zborowice,wieś,d,biecki,krakowskie,mała,49.7607352780000483,20.9717733350001581
Zgliczyno_Glinki_szr_plc,Zgliczyn-Glinki,Zgliczyno-Glinki,wieś,s,szreński,płockie,mała,52.9645894114723106,20.054092432919596
Odalanow_zm_kls_kls,Odolanów,Odolanów-zamek,zamek,k,kaliski,kaliskie,,51.575797802867271,17.6790105536914339
Zgliczyno_Pobodze_szr_plc,Zgliczyn Pobodzy,Zgliczyno-Pobodze,wieś,s,szreński,płockie,mała,52.9512518072253044,20.0318269853272852
Grzybowo_gzn_gzn_kls,Gniezno – część,Grzybowo,przedmieście,d,gnieźnieński,kaliskie,duże,52.5412842867094838,17.5993837981456274
Leczyca_zm_lcz_lcz,Łęczyca - część,Łęczyca-zamek,zamek,k,łęczycki,łęczyckie,,52.0630926369059495,19.2091873370514854
Zbyczyce_llw_krk,,Zbyczyce,wieś,m,lelowski,krakowskie,mała,50.6890973170000549,19.637393192000026
Zglobien_plz_snd,,Zgłobień,wieś,s,pilzneński,sandomierskie,duża,50.0105768920001523,21.8515872630013206
Zabokliki_luk_lub,,Żabokliki,wieś,s,łukowski,lubelskie,mała,52.1824967360002319,22.3199967400006614
Zdbiki_Karpie_prz_maz,Żbiki Wielkie,Zdbiki-Karpie,wieś,s,przasnyski,mazowieckie,mała,52.9281997160000515,20.9188938080000568
Siadcza_llw_krk,,Siadcza,wieś,s,lelowski,krakowskie,mała,50.5166884260000089,19.7146137440000651
Radziechow_sls_krk,Radziechowy,Radziechów,wieś,s,śląski,krakowskie,mała,49.6454576040000575,19.1315025820000102
Wola_gre_liw_maz,,Wola,wieś,s,liwski,mazowieckie,mała,52.2639545400001069,21.9214669120003087
Zebry_nmo_maz,Żebry-Wiatraki,Żebry,wieś,s,nowomiejski,mazowieckie,mała,52.7114716950000286,20.8795311030001081
Glinnik_pol_plz_snd,"Glinik Charzewski, Glinik Zaborowski",Glinnik,wieś,s,pilzneński,sandomierskie,mała,49.9063013100001172,21.8307263960012889
Zurawino_sie_plc,Żurawin Wielki,Żórawino,wieś,s,sierpecki,płockie,mała,52.786142027132982,19.5509401815443589
Siedlewo_Drzykozy_lcz_lcz,Drzykozy,Siedlewo-Drzykozy,wieś,s,łęczycki,łęczyckie,mała,52.1508567880000342,19.1120136000000933
Walewo_lcz_lcz,Walew,Walewo,wieś,s,łęczycki,łęczyckie,mała,52.1644189900000512,19.1769374340000311
Zyciny_wsl_snd,,Życiny,wieś,k,wiślicki,sandomierskie,mała,50.648885459000013,21.0259742570000974
Kolkowo_pck_pmr,Kolkowo,Kolkowo,wieś,s,pucki,pomorskie,mała,54.7138458945624322,18.0623335619014078
Byszewo_grj_lcz_lcz,Byszew-Zachciałki,Byszewo,wieś,s,łęczycki,łęczyckie,mała,52.1147376960000912,18.9826968360000414
Lupia_sch_raw,Arkadia,Łupia,wieś,d,sochaczewski,rawskie,mała,52.0864396930000595,20.0163025130000705
Lomnica_stz_snd,,Łomnica,wieś,s,stężycki,sandomierskie,mała,51.8273499310001213,21.8611522670003779
Zakrzow_chc_snd,,Zakrzów,wieś,s,chęciński,sandomierskie,mała,50.7698431810000415,20.1350251870000179
Siemki_ptr_srd,Siomki,Siemki,wieś,s,piotrkowski,sieradzkie,mała,51.3502474570000587,19.619108629000003
Beldrzychow_szd_srd,Bałdrzychów,Bełdrzychów,wieś,d,szadkowski,sieradzkie,mała,51.8572699940000419,18.9169354100000398
Modliszowice_opc_snd,Modliszewice,Modliszowice,wieś,s,opoczyński,sandomierskie,mała,51.2052061270000394,20.3682638010000261
Dzibaltow_opc_snd,Dziabałtów Stary,Dzibałtów,wieś,s,opoczyński,sandomierskie,mała,51.1500577019999838,20.3429635700000482
Wola_Wyszynska_opc_snd,Wyszyna Fałkowska,Wola Wyszyńska,wieś,s,opoczyński,sandomierskie,mała,51.1568232630000139,20.1666138030000681
Wola_Iwowa_opc_snd,Kozia Wola,Wola Iwowa,wieś,s,opoczyński,sandomierskie,mała,51.1730058860000483,20.5197562840000387
Lebki_Wielkie_was_maz,Łebki Duże,Łebki Wielkie,wieś,s,wąsoski,mazowieckie,mała,53.4994494710001405,22.1551718579994166
Lubnice_wln_srd,,Łubnice,wieś,d,wieluński,sieradzkie,duża,51.1564539850000415,18.2910972720000409
Linda_chl_chl,Lęda,Linda,wieś,s,chełmiński,chełmińskie,mała,53.3069598169846444,18.4251679764218395
Zywiec_sls_krk,,Żywiec,miasto,s,śląski,krakowskie,miasteczko,49.6894181460000297,19.199519475000006
Swinna_sis_krk,,Świnna,wieś,s,śląski,krakowskie,mała,49.6662897850000462,19.2580066270000145
Parszkowski_Mlyn_pck_pmr,Parszkowo,Parskowski Młyn,osada młyńska,s,pucki,pomorskie,,54.7743008808367762,18.2554577988598226
Zakrzewko_nkl_kls,Zakrzewek,Zakrzewko,wieś,s,nakielski,kaliskie,mała,53.3696123983385107,17.4361506138723108
Branica_swc_pmr,Branica Pierwsza,Branica,wieś,s,świecki,pomorskie,mała,53.4416275961275105,18.2160730061460079
Nowy_Dwor_bdg_inw,Nowy Dwór,Nowy Dwór,osada folwarczna,dm,bydgoski,inowrocławskie,,53.3284235294579716,17.9038301965438826
Kukow_llw_krk,Krzepice-Kuków,Kuków,osada folwarczna,d,lelowski,krakowskie,,50.9418226630000177,18.7371180920000562
Olszowka_scz_krk,,Olszówka,wieś,k,szczyrzycki,krakowskie,duża,49.6111179130000224,20.0294082470000525
Kuznica_Sulikowska_swr_swr,Siewierz-Kuźnica Sulikowska,Kuźnica Sulikowska,osada kuźnicza,d,księstwo siewierskie,księstwo siewierskie,,50.4559962120000591,19.2766608760000082
Zakrzow_rdm_snd,,Zakrzów,wieś,d,radomski,sandomierskie,mała,51.1940335340000772,21.8133308160006933
Lanie_Male_dbr_dbr,Lenie Małe,Linie Małe,wieś,s,dobrzyński,ziemia dobrzyńska,mała,52.6682793519243617,19.3782577987198827
Liciazna_bck_krk,Joniny - część,Liciążna,wieś,s,biecki,krakowskie,mała,49.8704284310000858,21.1850872560002728
Dabrowka_mch_chl,Dąbrówka,Dąbrówka,osada folwarczna,k,michałowski,chełmińskie,,53.2850281867236504,19.1867820021918263
Smilow_rdm_snd,,Śmiłów,wieś,d,radomski,sandomierskie,mała,51.2317626230000513,20.9082716370000448
Lgota_ost_srd,Ligota,Lgota,wieś,s,ostrzeszowski,sieradzkie,mała,51.371461807000081,17.8050482130000418
Lgota_srd_srd,Ligota,Lgota,wieś,s,sieradzki,sieradzkie,mała,51.4857071980000356,18.8468879030000203
Linsk_swc_pmr,Lińsk,Lińsk,wieś,s,świecki,pomorskie,mała,53.6881233980734294,18.140596452980823
Lesna_bla_raw,Lisna,Lesna,wieś,s,bialski,rawskie,mała,51.8748177330000573,20.337673694000042
Lubicz_knn_kls,Lubiecz,Lubiecz,wieś,s,koniński,kaliskie,mała,52.2815764019005513,18.048479114475807
Ludkowo_gzn_kls,Ludkowo,Lutkowo,osada folwarczna,s,gnieźnieński,kaliskie,,52.8120931688996293,18.0727698980403986
Frydland_zm_wlc_pzn,Mirosławiec,Frydland-zamek,zamek,s,wałecki,poznańskie,,53.3451029083529207,16.0964256677382451
Sierakow_zm_pzn_pzn,Sieraków,Sieraków-zamek,zamek,s,poznański,poznańskie,,52.6495360731119106,16.0879124930914976
Labuzie_plz_snd,,Łabuzie,wieś,s,pilzneński,sandomierskie,mała,49.9891280480000688,21.3125720290003109
Laskowice_szd_srd,Łódź-Łaskowice,Łaskowice,wieś,d,szadkowski,sieradzkie,mała,51.7084543429999997,19.3707023400000615
Lankowice_kcn_kls,Łankowice,Łankowice,wieś,s,kcyński,kaliskie,mała,53.0133220519481085,17.4521991955684648
Lawki_luk_lub,,Ławki,wieś,s,łukowski,lubelskie,mała,51.9636667650002124,22.3354805120009416
Golancza_zm_kcn_kls,Gołańcz,Gołańcza-zamek,zamek,s,kcyński,kaliskie,,52.9455776603078476,17.3079237814132227
Losnice_llw_krk,Zawiercie-Łośnice,Łośnice,wieś,s,lelowski,krakowskie,mała,50.4962657970000208,19.4729248470000442
Mojkowice_scz_krk,Majkowice,Mojkowice,wieś,s,szczyrzycki,krakowskie,mała,50.0491242770000042,20.4792637150000516
Malienino_gzn_kls,Malenin,Malenino,wieś,d,gnieźnieński,kaliskie,mała,52.4226677502657878,17.7342193713646417
Malyszyn_wln_srd,,Małyszyn,wieś,s,wieluński,sieradzkie,mała,51.2406986090000061,18.6320753690000451
